RouteID,latitude,longitude,nodeIdx,road,address,tollName,agency,state,roadType,cost,payment,node,lanes,duration,tollGrpId,eloc,distance,type,Road Catagory
1,12.840228,77.418022,151,Bangalore Mysore Expressway;Bengaluru Mysore Road;NH 275,"Bangalore Mysore Expressway, Ramanagara, Ramanagara District, Karnataka, 562109",Kanmanike Toll Plaza,NHAI,Karnataka;KA,NHY,165,['cash'],288839329,0,1078.4,390523456,MEDRAD,7978.4,barrier,"NHY,NGQ,NGQ,NGQ,NGQ,NGQ,NGQ,NGQ,NGQ,RDA,RDA,RDA,NGQ,NGQ,NGQ,NGQ,NGQ,NGQ,NGQ,NGQ,NGQ,NGQ,NHY,NHY,NHY,NHY,NHY,NHY,NHY,NHY,NHY,NHY"
1,13.193642,77.64968,1133,Bangalore Bellary Road;Bangalore Hyderabad Highway;International Airport Road;AH 43;NH 44,"Bangalore Bellary Road, Navarathna Agrahara, Bengaluru, Karnataka, 562157",Navayuga Devanahalli Toll Plaza,NHAI,Karnataka;KA,NGQ,110,['cash'],271149899,0,5863.8,426,JVPKPB,59674.7,barrier,"NGQ,NGQ,NGQ,NGQ,NGQ,NGQ,NGQ,NGQ,RDA,RDA,RDA,NGQ,NGQ,NGQ,NGQ,NGQ,NGQ,NGQ,NGQ,NGQ,NGQ,NHY,NHY,NHY,NHY,NHY,NHY,NHY,NHY,NHY,NHY"
1,13.792897,77.764213,2234,Srinagar Kanyakumari Highway;AH 43;NH 44,"NH-7, Bangalore Hyderabad Road, Bagepalli, Chikkaballapur District;Chikkaballapura District, Karnataka, 561207",Bagepalli Toll Plaza,NHAI,Karnataka;KA,NGQ,115,['cash'],103960020,4,10259.4,64,JVQS1N,132322,barrier,"NGQ,NGQ,NGQ,NGQ,NGQ,NGQ,NGQ,RDA,RDA,RDA,NGQ,NGQ,NGQ,NGQ,NGQ,NGQ,NGQ,NGQ,NGQ,NGQ,NHY,NHY,NHY,NHY,NHY,NHY,NHY,NHY,NHY,NHY"
1,14.502084,77.63124,3748,Srinagar Kanyakumari Highway;AH 43;NH 44,"Srinagar Kanyakumari Highway, Raptadu, Ananthapuramu District, Andhra Pradesh, 515522",Marur Toll Plaza,NHAI,Andhra Pradesh;AP,NGQ,135,['cash'],274837040,0,15877,696,JVUC1U,221851.9,barrier,"NGQ,NGQ,NGQ,NGQ,NGQ,NGQ,RDA,RDA,RDA,NGQ,NGQ,NGQ,NGQ,NGQ,NGQ,NGQ,NGQ,NGQ,NGQ,NHY,NHY,NHY,NHY,NHY,NHY,NHY,NHY,NHY,NHY"
1,15.061797,77.630227,4810,Srinagar Kanyakumari Highway;AH 43;NH 44,"Srinagar Kanyakumari Highway, Peddavadugur, Ananthapuramu District, Andhra Pradesh, 515401",Kasepalli Toll Plaza,NHAI,Andhra Pradesh;AP,NGQ,125,['cash'],286109621,0,21270.4,213,JVVCS4,288027,barrier,"NGQ,NGQ,NGQ,NGQ,NGQ,RDA,RDA,RDA,NGQ,NGQ,NGQ,NGQ,NGQ,NGQ,NGQ,NGQ,NGQ,NGQ,NHY,NHY,NHY,NHY,NHY,NHY,NHY,NHY,NHY,NHY"
1,15.486484,77.901044,5779,Srinagar Kanyakumari Highway;AH 43;NH 44,"Srinagar Kanyakumari Highway, Krishnagiri, Kurnool District, Andhra Pradesh, 518216",Amakathadu Toll Plaza,NHAI,Andhra Pradesh;AP,NGQ,130,['cash'],274837016,0,25067.3,214,JVVE1U,346855.9,barrier,"NGQ,NGQ,NGQ,NGQ,RDA,RDA,RDA,NGQ,NGQ,NGQ,NGQ,NGQ,NGQ,NGQ,NGQ,NGQ,NGQ,NHY,NHY,NHY,NHY,NHY,NHY,NHY,NHY,NHY,NHY"
1,15.887732,78.016874,6598,Srinagar Kanyakumari Highway;AH 43;NH 44,"Srinagar Kanyakumari Highway, Undavelly, Jogulamba Gadwal District, Telangana, 509128",Pullur Toll Plaza,NHAI,Telangana;TG,NGQ,130,['cash'],103952360,0,28255,215,JVXWF5,396479.8,barrier,"NGQ,NGQ,NGQ,RDA,RDA,RDA,NGQ,NGQ,NGQ,NGQ,NGQ,NGQ,NGQ,NGQ,NGQ,NGQ,NHY,NHY,NHY,NHY,NHY,NHY,NHY,NHY,NHY,NHY"
1,16.53572,77.94462,7892,Srinagar Kanyakumari Highway;AH 43;NH 44,"Srinagar Kanyakumari Highway, Addakal, Mahabubnagar District, Telangana, 509382",Shakhapur Toll Plaza,NHAI,Telangana;TG,NGQ,65,['cash'],270959913,0,33755.2,853,JVXDM6,482184.5,barrier,"NGQ,NGQ,RDA,RDA,RDA,NGQ,NGQ,NGQ,NGQ,NGQ,NGQ,NGQ,NGQ,NGQ,NGQ,NHY,NHY,NHY,NHY,NHY,NHY,NHY,NHY,NHY,NHY"
1,17.00592,78.194435,8834,Srinagar Kanyakumari Highway;AH 43;NH 44,"NH 7, Kurnool Road, Mahaboobnagar, Farooqnagar, Rangareddy District;Ranga Reddy District;KV Ranga Reddy District, Telangana, 509202",Raikal Toll Plaza,NHAI,Telangana;TG,NGQ,80,['cash'],270961339,0,37759.7,854,JVXUN7,542875.3,barrier,"NGQ,RDA,RDA,RDA,NGQ,NGQ,NGQ,NGQ,NGQ,NGQ,NGQ,NGQ,NGQ,NGQ,NHY,NHY,NHY,NHY,NHY,NHY,NHY,NHY,NHY,NHY"
1,17.249586,78.37519,9425,,"Shamshabad, Hyderabad, Telangana, 501218",Shamshabad Entry Toll Plaza,HMDA,Telangana;TG,RDA,120,['cash'],94303407,0,39964.9,390523080,JVWPVM,577413.7,ticket,"RDA,RDA,RDA,NGQ,NGQ,NGQ,NGQ,NGQ,NGQ,NGQ,NGQ,NGQ,NGQ,NHY,NHY,NHY,NHY,NHY,NHY,NHY,NHY,NHY,NHY"
1,17.603289,78.475744,10346,Nehru Outer Ring Road;Outer Ring Road;ORR,"Nehru Outer Ring Road, Seethariguda, Hyderabad, Telangana, 501401",Medchal Toll Plaza,,Telangana;TG,RDA,,,94307636,0,43268.6,598,H19BMQ,645526.8,barrier,"RDA,RDA,NGQ,NGQ,NGQ,NGQ,NGQ,NGQ,NGQ,NGQ,NGQ,NGQ,NHY,NHY,NHY,NHY,NHY,NHY,NHY,NHY,NHY,NHY"
1,17.598015,78.490995,10402,,"Kandlakoya, Hyderabad, Telangana, 501401",Medchal Exit Toll Plaza,HMDA,Telangana;TG,RDA,,,270955885,7,43453.2,390522086,JVX1RP,647771,ticket,"RDA,NGQ,NGQ,NGQ,NGQ,NGQ,NGQ,NGQ,NGQ,NGQ,NGQ,NHY,NHY,NHY,NHY,NHY,NHY,NHY,NHY,NHY,NHY"
1,17.801157,78.471591,10907,Srinagar Kanyakumari Highway;AH 43;NH 44,"NH 7 Road, Toopran, Toopran;Tupran, Medak District, Telangana, 502336",Manoharabad Toll Plaza,NHAI,Telangana;TG,NGQ,90,['cash'],285086774,0,45344.7,739,JW4FNC,671448.1,barrier,"NGQ,NGQ,NGQ,NGQ,NGQ,NGQ,NGQ,NGQ,NGQ,NGQ,NHY,NHY,NHY,NHY,NHY,NHY,NHY,NHY,NHY,NHY"
1,18.205053,78.3983,11839,Srinagar Kanyakumari Highway;AH 43;NH 44,"Srinagar Kanyakumari Highway, Bhiknoor, Kamareddy District, Telangana, 503101",Bhiknoor Toll Plaza,NHAI,Telangana;TG,NGQ,90,['cash'],276823454,0,48247,390500023,VKK6ME,722292.7,barrier,"NGQ,NGQ,NGQ,NGQ,NGQ,NGQ,NGQ,NGQ,NGQ,NHY,NHY,NHY,NHY,NHY,NHY,NHY,NHY,NHY,NHY"
1,18.538327,78.239653,12627,Srinagar Kanyakumari Highway;AH 43;NH 44,"Srinagar Kanyakumari Highway, Indalwai, Nizamabad District, Telangana, 503164",Indalwai Toll Plaza,NHAI,Telangana;TG,NGQ,85,['cash'],93750976,6,51273.5,509,JVXQ2T,770970,barrier,"NGQ,NGQ,NGQ,NGQ,NGQ,NGQ,NGQ,NGQ,NHY,NHY,NHY,NHY,NHY,NHY,NHY,NHY,NHY,NHY"
1,19.026579,78.362577,13656,Srinagar Kanyakumari Highway;AH 43;NH 44,"Srinagar Kanyakumari Highway, Soan, Nirmal District, Telangana, 504105",Gamjal Toll Plaza,NHAI,Telangana;TG,NGQ,60,['cash'],93942893,6,55333,221,JVXT2L,834971.2,barrier,"NGQ,NGQ,NGQ,NGQ,NGQ,NGQ,NGQ,NHY,NHY,NHY,NHY,NHY,NHY,NHY,NHY,NHY,NHY"
1,19.279922,78.409329,14396,Srinagar Kanyakumari Highway;AH 43;NH 44,"Srinagar Kanyakumari Highway, Neradigonda, Adilabad District, Telangana, 504323",Rolmamda Toll Plaza,NHAI,Telangana;TG,NGQ,105,['cash'],285087212,0,57951.6,222,JVXRCW,876758.5,barrier,"NGQ,NGQ,NGQ,NGQ,NGQ,NGQ,NHY,NHY,NHY,NHY,NHY,NHY,NHY,NHY,NHY,NHY"
1,19.780937,78.565612,15411,Srinagar Kanyakumari Highway;AH 43;NH 44,"Srinagar Kanyakumari Highway, Jainad, Adilabad District, Telangana, 504309",Pippalwada Toll Plaza,NHAI,Telangana;TG,NGQ,95,['cash'],93942485,0,62403.1,226,JVXQQS,940645.1,barrier,"NGQ,NGQ,NGQ,NGQ,NGQ,NHY,NHY,NHY,NHY,NHY,NHY,NHY,NHY,NHY,NHY"
1,20.019386,78.540194,15893,Srinagar Kanyakumari Highway;AH 43;NH 44,"Srinagar Kanyakumari Highway, Kelapur, Yavatmal District, Maharashtra, 445302",Kelapur Toll Plaza,NHAI,Maharashtra;MH,NGQ,105,['cash'],93751037,2,64407.5,518,JVNQQM,970059.6,barrier,"NGQ,NGQ,NGQ,NGQ,NHY,NHY,NHY,NHY,NHY,NHY,NHY,NHY,NHY,NHY"
1,20.450486,78.75504,16860,Srinagar Kanyakumari Highway;AH 43;NH 44,"Srinagar Kanyakumari Highway, Hinganghat, Wardha District, Maharashtra, 442307",Daroda Toll Plaza,NHAI,Maharashtra;MH,NGQ,115,['cash'],293285344,5,68511.5,534,JVNU3V,1027721.4,barrier,"NGQ,NGQ,NGQ,NHY,NHY,NHY,NHY,NHY,NHY,NHY,NHY,NHY,NHY"
1,20.854786,78.962971,17726,Srinagar Kanyakumari Highway;AH 43;NH 44,"Srinagar Kanyakumari Highway, Borkhedi, Maharashtra, 441108",Borkhedi Nagpur Bypass Toll Plaza,NHAI,Maharashtra;MH,NGQ,150,['cash'],87843109,5,72529.7,376,JVNK42,1084546,barrier,"NGQ,NGQ,NHY,NHY,NHY,NHY,NHY,NHY,NHY,NHY,NHY,NHY"
1,21.028294,79.06892,18102,Nagpur Bypass;Outer Ring Road;AH 43;NH 44,"Nagpur Bypass, Nagpur Rural, Nagpur District, Maharashtra, 441108",Panjari Toll Plaza,NHAI,Maharashtra;MH,NGQ,145,['cash'],87814452,5,74549.6,248,JVO8CV,1108562.8,barrier,"NGQ,NHY,NHY,NHY,NHY,NHY,NHY,NHY,NHY,NHY,NHY"
1,21.139587,79.3651,18668,Mumbai Kolkata Highway;Great Eastern Highway;AH 46;NH 53,"Mumbai Kolkata Highway, Mauda, Nagpur District, Maharashtra, 441104",WEPL Mathani Toll Plaza,NHAI,Maharashtra;MH,NHY,65,['cash'],104022529,5,77590.7,692,JVM9V6,1147451.5,barrier,"NHY,NHY,NHY,NHY,NHY,NHY,NHY,NHY,NHY,NHY"
1,21.13965,79.675258,19242,Mumbai Kolkata Highway;Great Eastern Highway;AH 46;NH 53,"Mumbai Kolkata Highway, Bhandara, Bhandara District, Maharashtra, 441924",Kardha Toll Plaza,NHAI,Maharashtra;MH,NHY,21,['cash'],104022540,2,80125.4,693,JVOC0I,1181482.1,barrier,"NHY,NHY,NHY,NHY,NHY,NHY,NHY,NHY,NHY"
1,21.088324,80.034127,19819,Mumbai Kolkata Highway;Great Eastern Highway;AH 46;NH 53,"Mumbai Kolkata Highway, Sakoli, Bhandara District, Maharashtra, 441802",Sendurwafa Toll Plaza,NHAI,Maharashtra;MH,NHY,95,['cash'],104022513,4,83271.2,691,JVOBDI,1221721,barrier,"NHY,NHY,NHY,NHY,NHY,NHY,NHY,NHY"
1,21.117942,81.122385,21633,Mumbai Kolkata Highway;AH 46;NH 53,"Mumbai Kolkata Highway, Rajnandgaon, Rajnandgaon District, Chhattisgarh, 491443",Thakurtola Toll Plaza,NHAI,Chhattisgarh;CT,NHY,110,['cash'],267889920,0,91627.7,661,JVZKL7,1339232.9,barrier,"NHY,NHY,NHY,NHY,NHY,NHY,NHY"
1,21.214526,81.288009,21998,Durg Bypass;Mumbai Kolkata Highway;AH 46;NH 53,"Durg Bypass, Durg, Durg District, Chhattisgarh, 491001",Durg Bypass Dhamdanaka Toll Plaza,NHAI,Chhattisgarh;CT,NHY,75,['cash'],103935082,0,93068.3,662,JVZL34,1362598.5,barrier,"NHY,NHY,NHY,NHY,NHY,NHY"
1,21.252788,81.536872,22425,Mumbai Kolkata Highway;Great Eastern Road;GE Road;AH 46;NH 53,"Mumbai Kolkata Highway, Kumhari, Chhattisgarh, 490042",Kumhari Toll Plaza,NHAI,Chhattisgarh;CT,NHY,15,['cash'],272437348,0,95739.8,412,JVZKAF,1390437.1,barrier,"NHY,NHY,NHY,NHY,NHY"
1,21.483289,81.690819,23012,Raipur Bilaspur Highway;NH 30,"Raipur Bilaspur Highway, Tilda, Raipur District, Chhattisgarh, 493221",Tarapoungi Toll Plaza,NHAI,Chhattisgarh;CT,NHY,90,['cash'],276689333,0,98118.9,390500012,I5B635,1425769.8,barrier,"NHY,NHY,NHY,NHY"
1,21.932431,82.011712,23936,Raipur Bilaspur Highway;NH 130,"Raipur Bilaspur Highway, Bilha, Bilaspur District, Chhattisgarh, 495224",Bhojpuri Toll Plaza,NHAI,Chhattisgarh;CT,NHY,95,['cash'],279349933,0,101904.2,910,JV01WA,1491240.2,barrier,"NHY,NHY,NHY"
1,22.289027,82.303176,25071,NH 130,"NH 130, Beltara, Bilaspur District, Chhattisgarh, 495449",Limha Toll Plaza,NHAI,Chhattisgarh;CT,NHY,110,['cash'],284179135,0,105668.6,390522218,FEEKET,1552020.6,barrier,"NHY,NHY"
1,22.766578,82.480299,26500,NH 130,"NH 130, Poundi Uproda, Korba District, Chhattisgarh, 495448",Chotiya Toll Plaza,NHAI,Chhattisgarh;CT,NHY,75,['cash'],283755006,0,110501.7,390522184,5V2UPV,1628226.9,barrier,NHY
10,24.24139,72.462676,2007,Abu Road;NH 27,"Abu Road, Palanpur, Banaskantha District, Gujarat, 385001",Khemana Toll Plaza,NHAI,Gujarat;GJ,NGQ,75,['cash'],85062948,6,9181.3,201,JVI7ZO,116959.6,barrier,"NGQ,NGQ,NGQ,NGQ,NGQ,NGQ,NGQ,NGQ,NGQ,NGQ,NGQ,NGQ,NGQ,NGQ,NHY,NHY,NHY,NHY,NHY"
10,24.633628,72.90704,3089,NH 27,"NH 27, Pindwara, Sirohi District, Rajasthan, 307023",Undavariya Sirohi Toll Plaza,NHAI,Rajasthan;RJ,NGQ,45,['cash'],267426677,0,13654,430,JV3PAO,184960.9,barrier,"NGQ,NGQ,NGQ,NGQ,NGQ,NGQ,NGQ,NGQ,NGQ,NGQ,NGQ,NGQ,NGQ,NHY,NHY,NHY,NHY,NHY"
10,24.712337,73.093821,3641,NH 27,"NH 27, Pindwara, Sirohi District, Rajasthan, 307022",Malera Toll Plaza,NHAI,Rajasthan;RJ,NGQ,115,['cash'],290676285,5,15763.4,312,JV47L6,217568.9,barrier,"NGQ,NGQ,NGQ,NGQ,NGQ,NGQ,NGQ,NGQ,NGQ,NGQ,NGQ,NGQ,NHY,NHY,NHY,NHY,NHY"
10,24.766046,73.524118,4645,NH 27,"NH 27, Gogunda, Udaipur District, Rajasthan, 313705",Gogunda Jaswantgarh Toll Plaza,NHAI,Rajasthan;RJ,NGQ,85,['cash'],283578393,5,20093.5,34,JVYPCF,270570.7,barrier,"NGQ,NGQ,NGQ,NGQ,NGQ,NGQ,NGQ,NGQ,NGQ,NGQ,NGQ,NHY,NHY,NHY,NHY,NHY"
10,24.613792,74.231795,6180,NH 27,"NH 27, Bhindar, Udaipur District, Rajasthan, 313603",Narayanpura Toll Plaza,NHAI,Rajasthan;RJ,NGQ,140,['cash'],277166431,6,25260,341,JV6BMO,357903.9,barrier,"NGQ,NGQ,NGQ,NGQ,NGQ,NGQ,NGQ,NGQ,NGQ,NGQ,NHY,NHY,NHY,NHY,NHY"
10,25.033974,74.817506,7550,NH 27,"NH 27, Bassi, Chittorgarh District, Rajasthan, 312022",Bassi Toll Plaza,NHAI,Rajasthan;RJ,NGQ,90,['cash'],94107017,0,30633.8,431,JV3UZS,443923.3,barrier,"NGQ,NGQ,NGQ,NGQ,NGQ,NGQ,NGQ,NGQ,NGQ,NHY,NHY,NHY,NHY,NHY"
10,25.091153,75.199044,8510,NH 27,"NH 27, Beejoliya, Bhilwara District, Rajasthan, 311602",Aroli Toll Plaza,NHAI,Rajasthan;RJ,NGQ,80,['cash'],94105684,3,34270.5,35,JV3UA2,500674.5,barrier,"NGQ,NGQ,NGQ,NGQ,NGQ,NGQ,NGQ,NGQ,NHY,NHY,NHY,NHY,NHY"
10,25.072635,75.598474,9262,NH 27,"NH 27, Talera, Bundi District, Rajasthan, 323022",Dhaneshwar Toll Plaza,NHAI,Rajasthan;RJ,NGQ,75,['cash'],267417943,4,37154.6,43,JV3UKR,547249.8,barrier,"NGQ,NGQ,NGQ,NGQ,NGQ,NGQ,NGQ,NHY,NHY,NHY,NHY,NHY"
10,25.156171,75.776682,9600,Kota Bypass;NH 27,"Kota Bypass, Ladpura, Kota District, Rajasthan, 324010",Sakatpura Toll Plaza,NHAI,Rajasthan;RJ,NGQ,80,['cash'],271177957,0,38422.1,390522714,JV7W3K,569324.3,barrier,"NGQ,NGQ,NGQ,NGQ,NGQ,NGQ,NHY,NHY,NHY,NHY,NHY"
10,25.170046,76.130595,10381,Kota Baran Road;NH 27,"Kota Baran Road, Digod, Kota District, Rajasthan, 325203",Simliya Toll Plaza,NHAI,Rajasthan;RJ,NGQ,85,['cash'],267417935,4,41327,443,JV3UBM,615697.4,barrier,"NGQ,NGQ,NGQ,NGQ,NGQ,NHY,NHY,NHY,NHY,NHY"
10,25.121803,76.573032,11218,NH 27,"NH 27, Baran, Baran District, Rajasthan, 325205",Fatehpur Toll Plaza,NHAI,Rajasthan;RJ,NGQ,110,['cash'],89127614,4,44297.3,36,JVYRHB,667135.6,barrier,"NGQ,NGQ,NGQ,NGQ,NHY,NHY,NHY,NHY,NHY"
10,25.208689,77.135997,12240,NH 27,"NH 27, Shahbad, Baran District, Rajasthan, 325217",Mundiyar Toll Plaza,NHAI,Rajasthan;RJ,NGQ,105,['cash'],267417921,4,47777.8,37,JVYQ0L,731568.2,barrier,"NGQ,NGQ,NGQ,NHY,NHY,NHY,NHY,NHY"
10,25.278989,77.614441,13294,NH 27,"NH 27, Kolaras, Shivpuri District, Madhya Pradesh, 473774",Ramnagar Toll Plaza,NHAI,Madhya Pradesh;MP,NGQ,100,['cash'],94144749,4,52164.1,427,JVF7D5,793966.7,barrier,"NGQ,NGQ,NHY,NHY,NHY,NHY,NHY"
10,25.461875,78.451184,14702,Jhansi Road;NH 27,"Jhansi Road, Jhansi, Jhansi District, Uttar Pradesh, 284419",Raksha Toll Plaza,NHAI,Uttar Pradesh;UP,NGQ,130,['cash'],92039842,4,58174.8,448,JV8I6S,888380.2,barrier,"NGQ,NHY,NHY,NHY,NHY,NHY"
10,25.343337,78.916662,15759,NH 39,"NH 39, Mauranipur, Jhansi District, Uttar Pradesh, 284205",Luhari Toll Plaza,NHAI,Uttar Pradesh;UP,NHY,150,['cash'],287530293,5,61652.5,390522091,NC7UVJ,947905.8,barrier,"NHY,NHY,NHY,NHY,NHY"
10,25.134156,79.376679,16559,NH 39,"NH 39, Nowgong, Chhatarpur District, Madhya Pradesh, 471201",Pachwara Toll Plaza,NHAI,Madhya Pradesh;MP,NHY,90,['cash'],280681595,0,64453.9,390522097,NL469B,1004331.8,barrier,"NHY,NHY,NHY,NHY"
10,24.782541,79.817006,17542,Panna Khajuraho Road;NH 39,"Panna Khajuraho Road, Rajnagar, Chhatarpur District, Madhya Pradesh, 471105",Devgaon Toll Plaza,NHAI,Madhya Pradesh;MP,NHY,75,['cash'],283375923,0,67876.9,390522185,5V2XZW,1068481.2,barrier,"NHY,NHY,NHY"
10,24.577362,80.690969,19272,Panna Satna Road;NH 39,"Panna Satna Road, Nagod, Satna District, Madhya Pradesh, 485441",Mauhari Toll Plaza,NHAI,Madhya Pradesh;MP,NHY,50,['cash'],283806628,0,74654,390522822,5V3K6Z,1164981.8,barrier,"NHY,NHY"
10,24.493481,81.143324,20071,Satna Rewa Road;NH 39,"Satna Rewa Road, Amarpatan, Satna District, Madhya Pradesh, 485115",Bela Toll Plaza,NHAI,Madhya Pradesh;MP,NHY,90,['cash'],287468961,4,77903.5,390523270,GAEEDL,1216565.1,barrier,NHY
11,23.527324,72.388248,733,Ahmedabad Palanpur Highway;SH 41,"Ahmedabad Palanpur Highway, Mahesana, Mahesana District, Gujarat, 384460",Mehsana Toll Plaza,GSRDC,Gujarat;GJ,SHY,,,279154240,0,4780.7,390500069,JVIVPZ,43663,barrier,"SHY,SHY,RDA,RDA,NGQ,NHY,NHY,NHY,NHY,NHY,NHY,NHY,SHY,SHY,SHY"
11,23.186465,72.560319,1430,Ahmedabad Palanpur Highway;SH 41,"Ahmedabad Palanpur Highway, Gandhinagar, Gandhinagar District, Gujarat, 382423",Adalaj Toll Plaza,GSRDC,Gujarat;GJ,SHY,,,85169776,0,7631.7,192,JVKCUH,89277.5,barrier,"SHY,RDA,RDA,NGQ,NHY,NHY,NHY,NHY,NHY,NHY,NHY,SHY,SHY,SHY"
11,23.128532,72.592674,1582,Sardar Patel Ring Road;SP Ring Road,"Sardar Patel Ring Road, Gandhinagar, Gandhinagar District, Gujarat, 382421",Tragad Toll Plaza,,Gujarat;GJ,RDA,15,['cash'],270463361,0,8478.9,182,JVKGJ7,97671.4,barrier,"RDA,RDA,NGQ,NHY,NHY,NHY,NHY,NHY,NHY,NHY,SHY,SHY,SHY"
11,23.115423,72.642845,1685,Sardar Patel Ring Road;SP Ring Road,"Sardar Patel Ring Road, Gandhinagar, Gujarat, 382426",Bhaat Toll Plaza,,Gujarat;GJ,RDA,16,['cash'],270506139,0,8886.5,177,JVKE2Z,103133.6,barrier,"RDA,NGQ,NHY,NHY,NHY,NHY,NHY,NHY,NHY,SHY,SHY,SHY"
11,23.096256,72.686405,1801,Ahmedabad Bypass;Sardar Patel Ring Road;SP Ring Road;NH 48,"Ahmedabad Bypass, Asarva, Ahmedabad District, Gujarat, 382330",Ranasan Toll Plaza,NHAI,Gujarat;GJ,NGQ,30,['cash'],84941335,0,9333.2,181,JVKGG7,108676.7,barrier,"NGQ,NHY,NHY,NHY,NHY,NHY,NHY,NHY,SHY,SHY,SHY"
11,22.912917,72.957378,2468,Indore Ahmedabad Highway;NH 47,"Indore Ahmedabad Highway, Kathlal, Kheda District, Gujarat, 387630",Pithai Toll Plaza,NHAI,Gujarat;GJ,NHY,120,['cash'],271131433,4,12018.4,536,JVIJ50,150651.6,barrier,"NHY,NHY,NHY,NHY,NHY,NHY,NHY,SHY,SHY,SHY"
11,22.792389,73.533173,3573,Indore Ahmedabad Highway;NH 47,"Indore Ahmedabad Highway, Godhra, Panchmahals District, Gujarat, 388713",Vavadi Khurd Toll Plaza,NHAI,Gujarat;GJ,NHY,135,['cash'],276891405,0,16458.7,468,JVJN3K,223815,barrier,"NHY,NHY,NHY,NHY,NHY,NHY,SHY,SHY,SHY"
11,22.793038,73.842874,4202,Indore Ahmedabad Highway;Godhra Road;NH 47,"Indore Ahmedabad Highway, Devgadbaria, Dahod District, Gujarat, 389130",Bhatwada Godhra Toll Plaza,NHAI,Gujarat;GJ,NHY,175,['cash'],271130612,7,18693.4,467,JVJ1GB,259491.3,barrier,"NHY,NHY,NHY,NHY,NHY,SHY,SHY,SHY"
11,22.741769,74.83639,6487,Indore Ahmedabad Highway;NH 47,"Indore Ahmedabad Highway, Sardarpur, Dhar District, Madhya Pradesh, 454116",Dattigaon Toll Plaza,NHAI,Madhya Pradesh;MP,NHY,140,['cash'],271859692,0,26700,882,JVH88Z,375486.3,barrier,"NHY,NHY,NHY,NHY,SHY,SHY,SHY"
11,22.673233,75.545879,7955,Indore Ahmedabad Highway;Indore Dhar Road;NH 47,"Indore Ahmedabad Highway, Depalpur, Indore District, Madhya Pradesh, 453001",Methwada Toll Plaza,NHAI,Madhya Pradesh;MP,NHY,160,['cash'],94125848,0,31564.9,554,JVG1MH,459590,barrier,"NHY,NHY,NHY,SHY,SHY,SHY"
11,22.824767,75.938297,9057,Indore Bypass;AH 47;NH 52,"Indore Bypass, Mangalya, Madhya Pradesh, 453771",Indore Dewas Toll Plaza,NHAI,Madhya Pradesh;MP,NHY,65,['cash'],270626909,6,37321.2,557,JVG6P8,513721.7,barrier,"NHY,NHY,SHY,SHY,SHY"
11,22.928557,76.045416,9374,Dewas Bypass;AH 47;NH 52,"Dewas Bypass, Dewas Nagar, Dewas District, Madhya Pradesh, 455111",Dewas Bypass Toll Plaza,MPRDC,Madhya Pradesh;MP,NHY,15,['cash'],280683901,5,38823.1,390522100,NL40ST,531789.3,barrier,"NHY,SHY,SHY,SHY"
11,22.975258,76.218503,9693,Dewas Bhopal Corridor Road;SH 28,"Dewas Bhopal Corridor Road, Sonkatch, Dewas District, Madhya Pradesh, 455115",Bhonrasa Toll Plaza,MPRDC,Madhya Pradesh;MP,SHY,72,['cash'],94146447,0,40265.1,566,JVGHFX,552215.9,barrier,"SHY,SHY,SHY"
11,23.102401,76.875875,10849,Dewas Bhopal Corridor Road;SH 28,"Dewas Bhopal Corridor Road, Ashta, Sehore District, Madhya Pradesh, 466114",Bheel Khedi Toll Plaza,MPRDC,Madhya Pradesh;MP,SHY,42,['cash'],94135972,0,44310.6,560,JVGA8U,625311.2,barrier,"SHY,SHY"
11,23.224669,77.190847,11384,Dewas Bhopal Corridor Road;SH 28,"Dewas Bhopal Corridor Road, Huzur, Bhopal District, Madhya Pradesh, 462030",Fanda Toll Plaza,MPRDC,Madhya Pradesh;MP,SHY,33,['cash'],94097107,0,46352.2,542,JVGM8B,661644,barrier,SHY
12,23.527324,72.388248,733,Ahmedabad Palanpur Highway;SH 41,"Ahmedabad Palanpur Highway, Mahesana, Mahesana District, Gujarat, 384460",Mehsana Toll Plaza,GSRDC,Gujarat;GJ,SHY,,,279154240,0,4780.7,390500069,JVIVPZ,43663,barrier,"SHY,SHY,RDA,RDA,NGQ,NGQ,NGQ,NGQ,NGQ,NGQ,NGQ,NGQ,NGQ,NGQ,NGQ,NHY,NHY,RDA,NGQ,NGQ,NGQ,NHY"
12,23.186465,72.560319,1430,Ahmedabad Palanpur Highway;SH 41,"Ahmedabad Palanpur Highway, Gandhinagar, Gandhinagar District, Gujarat, 382423",Adalaj Toll Plaza,GSRDC,Gujarat;GJ,SHY,,,85169776,0,7631.7,192,JVKCUH,89277.5,barrier,"SHY,RDA,RDA,NGQ,NGQ,NGQ,NGQ,NGQ,NGQ,NGQ,NGQ,NGQ,NGQ,NGQ,NHY,NHY,RDA,NGQ,NGQ,NGQ,NHY"
12,23.128532,72.592674,1582,Sardar Patel Ring Road;SP Ring Road,"Sardar Patel Ring Road, Gandhinagar, Gandhinagar District, Gujarat, 382421",Tragad Toll Plaza,,Gujarat;GJ,RDA,15,['cash'],270463361,0,8478.9,182,JVKGJ7,97671.4,barrier,"RDA,RDA,NGQ,NGQ,NGQ,NGQ,NGQ,NGQ,NGQ,NGQ,NGQ,NGQ,NGQ,NHY,NHY,RDA,NGQ,NGQ,NGQ,NHY"
12,23.115423,72.642845,1685,Sardar Patel Ring Road;SP Ring Road,"Sardar Patel Ring Road, Gandhinagar, Gujarat, 382426",Bhaat Toll Plaza,,Gujarat;GJ,RDA,16,['cash'],270506139,0,8886.5,177,JVKE2Z,103133.6,barrier,"RDA,NGQ,NGQ,NGQ,NGQ,NGQ,NGQ,NGQ,NGQ,NGQ,NGQ,NGQ,NHY,NHY,RDA,NGQ,NGQ,NGQ,NHY"
12,23.096256,72.686405,1801,Ahmedabad Bypass;Sardar Patel Ring Road;SP Ring Road;NH 48,"Ahmedabad Bypass, Asarva, Ahmedabad District, Gujarat, 382330",Ranasan Toll Plaza,NHAI,Gujarat;GJ,NGQ,30,['cash'],84941335,0,9333.2,181,JVKGG7,108676.7,barrier,"NGQ,NGQ,NGQ,NGQ,NGQ,NGQ,NGQ,NGQ,NGQ,NGQ,NGQ,NHY,NHY,RDA,NGQ,NGQ,NGQ,NHY"
12,22.983773,72.663833,2023,Ahmedabad Bypass;Sardar Patel Ring Road;SP Ring Road;NH 48,"Ahmedabad Bypass, Vatva, Ahmedabad District, Gujarat, 382449",Ramol Toll Plaza,NHAI,Gujarat;GJ,NGQ,30,['cash'],84941332,0,10617.2,180,JVKFD7,121631,barrier,"NGQ,NGQ,NGQ,NGQ,NGQ,NGQ,NGQ,NGQ,NGQ,NGQ,NHY,NHY,RDA,NGQ,NGQ,NGQ,NHY"
12,22.970032,72.662089,2053,NE 1,"Ramol, Vatva, Ahmedabad District;Ahmadabad District, Gujarat, 382449",Ahmedabad Ring Road Entry Toll Plaza,NHAI,Gujarat;GJ,NGQ,135,['cash'],84941348,0,10811.9,390523106,JVKHP2,123184.9,ticket,"NGQ,NGQ,NGQ,NGQ,NGQ,NGQ,NGQ,NGQ,NGQ,NHY,NHY,RDA,NGQ,NGQ,NGQ,NHY"
12,22.413804,73.149435,3116,Ahmedabad Vadodara Expressway;Mahatma Gandhi Expressway;NE 1,"Ahmedabad Vadodara Expressway, Vadodara, Vadodara District, Gujarat, 391745",Vadodara Main Exit Toll Plaza,NHAI,Gujarat;GJ,NGQ,,,263939977,0,14800.7,173,JVKLK4,205350.1,ticket,"NGQ,NGQ,NGQ,NGQ,NGQ,NGQ,NGQ,NGQ,NHY,NHY,RDA,NGQ,NGQ,NGQ,NHY"
12,22.014817,73.115347,4044,NH 48,"NH 48, Karjan, Vadodara District, Gujarat, 391244",Bharthana Karjan Toll Plaza,NHAI,Gujarat;GJ,NGQ,105,['cash'],84941320,0,19139.8,166,JVKK68,262005.1,barrier,"NGQ,NGQ,NGQ,NGQ,NGQ,NGQ,NGQ,NHY,NHY,RDA,NGQ,NGQ,NGQ,NHY"
12,21.702284,73.061148,4599,NH 48,"NH 48, Anklesvar, Bharuch District, Gujarat, 393010",Mandava Toll Plaza,NHAI,Gujarat;GJ,NGQ,30,['cash'],286477099,9,21675.5,871,JW34AF,300054.3,barrier,"NGQ,NGQ,NGQ,NGQ,NGQ,NGQ,NHY,NHY,RDA,NGQ,NGQ,NGQ,NHY"
12,21.303037,72.954261,5357,NH 48,"NH 48, Kamrej, Surat District, Gujarat, 394150",Choryasi Toll Plaza,NHAI,Gujarat;GJ,NGQ,80,['cash'],271984627,7,26478.7,176,JVIMZR,349959.2,barrier,"NGQ,NGQ,NGQ,NGQ,NGQ,NHY,NHY,RDA,NGQ,NGQ,NGQ,NHY"
12,20.885734,73.052202,6271,NH 48,"NH 48, Navsari, Navsari District, Gujarat, 396433",Boriach Toll Plaza,NHAI,Gujarat;GJ,NGQ,65,['cash'],276893301,0,29690.1,344,JVINE4,402909.6,barrier,"NGQ,NGQ,NGQ,NGQ,NHY,NHY,RDA,NGQ,NGQ,NGQ,NHY"
12,20.434939,72.917265,7354,NH 48,"NH 48, Pardi, Valsad District, Gujarat, 396185",Bhagwada Toll Plaza,NHAI,Gujarat;GJ,NGQ,75,['cash'],276891265,6,33057.6,169,JVISY2,461979,barrier,"NGQ,NGQ,NGQ,NHY,NHY,RDA,NGQ,NGQ,NGQ,NHY"
12,19.890544,72.942852,8434,NH 48,"NH 48, Dahanu, Palghar District, Maharashtra, 401607",Charoti Toll Plaza,NHAI,Maharashtra;MH,NGQ,65,['cash'],287814519,6,36887.4,124,JVMF10,526023.1,barrier,"NGQ,NGQ,NHY,NHY,RDA,NGQ,NGQ,NGQ,NHY"
12,19.520429,72.916971,9336,Western Expressway;NH 48,"NH 48, Vasai, Palghar District, Maharashtra, 401303",Khaniwade Toll Plaza,NHAI,Maharashtra;MH,NGQ,75,['cash'],263034477,5,39392.4,488,JVOGVK,572854.8,barrier,"NGQ,NHY,NHY,RDA,NGQ,NGQ,NGQ,NHY"
12,19.171644,72.968216,10410,Eastern Express Highway;AH 47;NH 48,"Eastern Express Highway, Durgawadi, Mulund East, Mumbai, Maharashtra, 400081",Mulund Toll Plaza,,Maharashtra;MH,NHY,40,['cash'],290132385,0,44885.3,390523552,TY69M8,623039,barrier,"NHY,NHY,RDA,NGQ,NGQ,NGQ,NHY"
12,19.169114,72.966836,10421,Eastern Express Highway;AH 47;NH 48,"Eastern Express Highway, MHADA Colony, Mulund East, Mumbai, Maharashtra, 400081",Mulund Toll Plaza,,Maharashtra;MH,NHY,40,['cash'],87761593,5,44960.5,153,JVKRHB,623356.5,barrier,"NHY,RDA,NGQ,NGQ,NGQ,NHY"
12,19.153552,72.965731,10466,Mulund Airoli Road,"Mulund Airoli Road, Mulund East, Mumbai, Maharashtra, 400081",Airoli Toll Plaza,,Maharashtra;MH,RDA,40,['cash'],290677755,6,45279.6,143,JVL87G,626129.3,barrier,"RDA,NGQ,NGQ,NGQ,NHY"
12,19.02974,73.089757,10961,Sion Panvel Expressway;Yashwantrao Chavan Expressway;AH 47,"Sion Panvel Expressway, Navi Mumbai, Maharashtra, 410209",Kharghar Toll Plaza,"MAHAPWD, MSRDC",Maharashtra;MH,NGQ,,,263883493,0,48086.7,670,JVOL8Q,651084.5,barrier,"NGQ,NGQ,NGQ,NHY"
12,18.801147,73.285488,11433,Mumbai Pune Expressway;Yashwantrao Chavan Expressway;AH 47,"Khalapur, Raigad District;Raigarh District, Maharashtra, 410202",Khalapur Toll Plaza,MSRDC,Maharashtra;MH,NGQ,320,['cash'],284207224,0,49658.8,672,JVOIR1,685493.2,ticket,"NGQ,NGQ,NHY"
12,18.713984,73.645839,12326,Mumbai Pune Expressway;Yashwantrao Chavan Expressway;AH 47,"Mumbai Pune Expressway, Mawal, Pune District, Maharashtra, 410506",Talegaon Toll Plaza,MSRDC,Maharashtra;MH,NGQ,,,284207229,9,52440.2,673,JVOHCK,735907.3,ticket,"NGQ,NHY"
12,18.700291,73.692117,12424,Old Mumbai Pune Highway;NH 48,"Old Mumbai Pune Highway, Mawal, Pune District, Maharashtra, 410506",Somatane Toll Plaza,,Maharashtra;MH,NHY,41,['cash'],263081308,4,52925.3,112,JVOHI7,741146.5,barrier,NHY
13,23.527324,72.388248,733,Ahmedabad Palanpur Highway;SH 41,"Ahmedabad Palanpur Highway, Mahesana, Mahesana District, Gujarat, 384460",Mehsana Toll Plaza,GSRDC,Gujarat;GJ,SHY,,,279154240,0,4780.7,390500069,JVIVPZ,43663,barrier,"SHY,SHY,RDA,RDA,NGQ,NHY,NHY,NHY,NHY,NHY"
13,23.186465,72.560319,1430,Ahmedabad Palanpur Highway;SH 41,"Ahmedabad Palanpur Highway, Gandhinagar, Gandhinagar District, Gujarat, 382423",Adalaj Toll Plaza,GSRDC,Gujarat;GJ,SHY,,,85169776,0,7631.7,192,JVKCUH,89277.5,barrier,"SHY,RDA,RDA,NGQ,NHY,NHY,NHY,NHY,NHY"
13,23.128532,72.592674,1582,Sardar Patel Ring Road;SP Ring Road,"Sardar Patel Ring Road, Gandhinagar, Gandhinagar District, Gujarat, 382421",Tragad Toll Plaza,,Gujarat;GJ,RDA,15,['cash'],270463361,0,8478.9,182,JVKGJ7,97671.4,barrier,"RDA,RDA,NGQ,NHY,NHY,NHY,NHY,NHY"
13,23.115423,72.642845,1685,Sardar Patel Ring Road;SP Ring Road,"Sardar Patel Ring Road, Gandhinagar, Gujarat, 382426",Bhaat Toll Plaza,,Gujarat;GJ,RDA,16,['cash'],270506139,0,8886.5,177,JVKE2Z,103133.6,barrier,"RDA,NGQ,NHY,NHY,NHY,NHY,NHY"
13,23.096256,72.686405,1801,Ahmedabad Bypass;Sardar Patel Ring Road;SP Ring Road;NH 48,"Ahmedabad Bypass, Asarva, Ahmedabad District, Gujarat, 382330",Ranasan Toll Plaza,NHAI,Gujarat;GJ,NGQ,30,['cash'],84941335,0,9333.2,181,JVKGG7,108676.7,barrier,"NGQ,NHY,NHY,NHY,NHY,NHY"
13,22.912917,72.957378,2468,Indore Ahmedabad Highway;NH 47,"Indore Ahmedabad Highway, Kathlal, Kheda District, Gujarat, 387630",Pithai Toll Plaza,NHAI,Gujarat;GJ,NHY,120,['cash'],271131433,4,12018.4,536,JVIJ50,150651.6,barrier,"NHY,NHY,NHY,NHY,NHY"
13,22.792389,73.533173,3573,Indore Ahmedabad Highway;NH 47,"Indore Ahmedabad Highway, Godhra, Panchmahals District, Gujarat, 388713",Vavadi Khurd Toll Plaza,NHAI,Gujarat;GJ,NHY,135,['cash'],276891405,0,16458.7,468,JVJN3K,223815,barrier,"NHY,NHY,NHY,NHY"
13,22.793038,73.842874,4202,Indore Ahmedabad Highway;Godhra Road;NH 47,"Indore Ahmedabad Highway, Devgadbaria, Dahod District, Gujarat, 389130",Bhatwada Godhra Toll Plaza,NHAI,Gujarat;GJ,NHY,175,['cash'],271130612,7,18693.4,467,JVJ1GB,259491.3,barrier,"NHY,NHY,NHY"
13,22.741769,74.83639,6487,Indore Ahmedabad Highway;NH 47,"Indore Ahmedabad Highway, Sardarpur, Dhar District, Madhya Pradesh, 454116",Dattigaon Toll Plaza,NHAI,Madhya Pradesh;MP,NHY,140,['cash'],271859692,0,26700,882,JVH88Z,375486.3,barrier,"NHY,NHY"
13,22.173754,75.456946,9040,AB Road;Agra Bombay Road;AH 47;NH 52,"AB Road, Dharampuri, Dhar District, Madhya Pradesh, 454552",Khalghat Toll Plaza,NHAI,Madhya Pradesh;MP,NHY,65,['cash'],94147963,0,34843.6,568,JW2VUV,497132.5,barrier,NHY
14,24.24139,72.462676,2007,Abu Road;NH 27,"Abu Road, Palanpur, Banaskantha District, Gujarat, 385001",Khemana Toll Plaza,NHAI,Gujarat;GJ,NGQ,75,['cash'],85062948,6,9181.3,201,JVI7ZO,116959.6,barrier,"NGQ,NGQ,NGQ,NGQ,NGQ,NGQ,NGQ,NGQ,NGQ,NGQ,NGQ,NGQ,NGQ,NHY,NHY"
14,24.633628,72.90704,3089,NH 27,"NH 27, Pindwara, Sirohi District, Rajasthan, 307023",Undavariya Sirohi Toll Plaza,NHAI,Rajasthan;RJ,NGQ,45,['cash'],267426677,0,13654,430,JV3PAO,184960.9,barrier,"NGQ,NGQ,NGQ,NGQ,NGQ,NGQ,NGQ,NGQ,NGQ,NGQ,NGQ,NGQ,NHY,NHY"
14,24.712337,73.093821,3641,NH 27,"NH 27, Pindwara, Sirohi District, Rajasthan, 307022",Malera Toll Plaza,NHAI,Rajasthan;RJ,NGQ,115,['cash'],290676285,5,15763.4,312,JV47L6,217568.9,barrier,"NGQ,NGQ,NGQ,NGQ,NGQ,NGQ,NGQ,NGQ,NGQ,NGQ,NGQ,NHY,NHY"
14,24.766046,73.524118,4645,NH 27,"NH 27, Gogunda, Udaipur District, Rajasthan, 313705",Gogunda Jaswantgarh Toll Plaza,NHAI,Rajasthan;RJ,NGQ,85,['cash'],283578393,5,20093.5,34,JVYPCF,270570.7,barrier,"NGQ,NGQ,NGQ,NGQ,NGQ,NGQ,NGQ,NGQ,NGQ,NGQ,NHY,NHY"
14,24.613792,74.231795,6180,NH 27,"NH 27, Bhindar, Udaipur District, Rajasthan, 313603",Narayanpura Toll Plaza,NHAI,Rajasthan;RJ,NGQ,140,['cash'],277166431,6,25260,341,JV6BMO,357903.9,barrier,"NGQ,NGQ,NGQ,NGQ,NGQ,NGQ,NGQ,NGQ,NGQ,NHY,NHY"
14,25.033974,74.817506,7550,NH 27,"NH 27, Bassi, Chittorgarh District, Rajasthan, 312022",Bassi Toll Plaza,NHAI,Rajasthan;RJ,NGQ,90,['cash'],94107017,0,30633.8,431,JV3UZS,443923.3,barrier,"NGQ,NGQ,NGQ,NGQ,NGQ,NGQ,NGQ,NGQ,NHY,NHY"
14,25.091153,75.199044,8510,NH 27,"NH 27, Beejoliya, Bhilwara District, Rajasthan, 311602",Aroli Toll Plaza,NHAI,Rajasthan;RJ,NGQ,80,['cash'],94105684,3,34270.5,35,JV3UA2,500674.5,barrier,"NGQ,NGQ,NGQ,NGQ,NGQ,NGQ,NGQ,NHY,NHY"
14,25.072635,75.598474,9262,NH 27,"NH 27, Talera, Bundi District, Rajasthan, 323022",Dhaneshwar Toll Plaza,NHAI,Rajasthan;RJ,NGQ,75,['cash'],267417943,4,37154.6,43,JV3UKR,547249.8,barrier,"NGQ,NGQ,NGQ,NGQ,NGQ,NGQ,NHY,NHY"
14,25.156171,75.776682,9600,Kota Bypass;NH 27,"Kota Bypass, Ladpura, Kota District, Rajasthan, 324010",Sakatpura Toll Plaza,NHAI,Rajasthan;RJ,NGQ,80,['cash'],271177957,0,38422.1,390522714,JV7W3K,569324.3,barrier,"NGQ,NGQ,NGQ,NGQ,NGQ,NHY,NHY"
14,25.170046,76.130595,10381,Kota Baran Road;NH 27,"Kota Baran Road, Digod, Kota District, Rajasthan, 325203",Simliya Toll Plaza,NHAI,Rajasthan;RJ,NGQ,85,['cash'],267417935,4,41327,443,JV3UBM,615697.4,barrier,"NGQ,NGQ,NGQ,NGQ,NHY,NHY"
14,25.121803,76.573032,11218,NH 27,"NH 27, Baran, Baran District, Rajasthan, 325205",Fatehpur Toll Plaza,NHAI,Rajasthan;RJ,NGQ,110,['cash'],89127614,4,44297.3,36,JVYRHB,667135.6,barrier,"NGQ,NGQ,NGQ,NHY,NHY"
14,25.208689,77.135997,12240,NH 27,"NH 27, Shahbad, Baran District, Rajasthan, 325217",Mundiyar Toll Plaza,NHAI,Rajasthan;RJ,NGQ,105,['cash'],267417921,4,47777.8,37,JVYQ0L,731568.2,barrier,"NGQ,NGQ,NHY,NHY"
14,25.278989,77.614441,13294,NH 27,"NH 27, Kolaras, Shivpuri District, Madhya Pradesh, 473774",Ramnagar Toll Plaza,NHAI,Madhya Pradesh;MP,NGQ,100,['cash'],94144749,4,52164.1,427,JVF7D5,793966.7,barrier,"NGQ,NHY,NHY"
14,25.681419,77.728907,14190,AB Road;Agra Bombay Road;AH 47;NH 46,"AB Road, Shivpuri, Shivpuri District, Madhya Pradesh, 473551",Mudkhera Toll Plaza,NHAI,Madhya Pradesh;MP,NHY,100,['cash'],272588571,6,55867,924,XVSTRN,847701.8,barrier,"NHY,NHY"
14,26.09785,78.015765,15213,AB Road;Agra Bombay Road;AH 47;NH 46,"AB Road, Ghatigaon, Gwalior District, Madhya Pradesh, 475330",Panihaar Toll Plaza,NHAI,Madhya Pradesh;MP,NHY,95,['cash'],271859741,0,59760.6,884,JVHCOC,907611.8,barrier,NHY
15,23.527324,72.388248,733,Ahmedabad Palanpur Highway;SH 41,"Ahmedabad Palanpur Highway, Mahesana, Mahesana District, Gujarat, 384460",Mehsana Toll Plaza,GSRDC,Gujarat;GJ,SHY,,,279154240,0,4780.7,390500069,JVIVPZ,43663,barrier,"SHY,SHY,RDA,RDA,NGQ,NHY,NHY,NHY,NHY,NHY,NHY,NHY,SHY,SHY,SHY,NHY,NHY,NHY,NHY,NHY"
15,23.186465,72.560319,1430,Ahmedabad Palanpur Highway;SH 41,"Ahmedabad Palanpur Highway, Gandhinagar, Gandhinagar District, Gujarat, 382423",Adalaj Toll Plaza,GSRDC,Gujarat;GJ,SHY,,,85169776,0,7631.7,192,JVKCUH,89277.5,barrier,"SHY,RDA,RDA,NGQ,NHY,NHY,NHY,NHY,NHY,NHY,NHY,SHY,SHY,SHY,NHY,NHY,NHY,NHY,NHY"
15,23.128532,72.592674,1582,Sardar Patel Ring Road;SP Ring Road,"Sardar Patel Ring Road, Gandhinagar, Gandhinagar District, Gujarat, 382421",Tragad Toll Plaza,,Gujarat;GJ,RDA,15,['cash'],270463361,0,8478.9,182,JVKGJ7,97671.4,barrier,"RDA,RDA,NGQ,NHY,NHY,NHY,NHY,NHY,NHY,NHY,SHY,SHY,SHY,NHY,NHY,NHY,NHY,NHY"
15,23.115423,72.642845,1685,Sardar Patel Ring Road;SP Ring Road,"Sardar Patel Ring Road, Gandhinagar, Gujarat, 382426",Bhaat Toll Plaza,,Gujarat;GJ,RDA,16,['cash'],270506139,0,8886.5,177,JVKE2Z,103133.6,barrier,"RDA,NGQ,NHY,NHY,NHY,NHY,NHY,NHY,NHY,SHY,SHY,SHY,NHY,NHY,NHY,NHY,NHY"
15,23.096256,72.686405,1801,Ahmedabad Bypass;Sardar Patel Ring Road;SP Ring Road;NH 48,"Ahmedabad Bypass, Asarva, Ahmedabad District, Gujarat, 382330",Ranasan Toll Plaza,NHAI,Gujarat;GJ,NGQ,30,['cash'],84941335,0,9333.2,181,JVKGG7,108676.7,barrier,"NGQ,NHY,NHY,NHY,NHY,NHY,NHY,NHY,SHY,SHY,SHY,NHY,NHY,NHY,NHY,NHY"
15,22.912917,72.957378,2468,Indore Ahmedabad Highway;NH 47,"Indore Ahmedabad Highway, Kathlal, Kheda District, Gujarat, 387630",Pithai Toll Plaza,NHAI,Gujarat;GJ,NHY,120,['cash'],271131433,4,12018.4,536,JVIJ50,150651.6,barrier,"NHY,NHY,NHY,NHY,NHY,NHY,NHY,SHY,SHY,SHY,NHY,NHY,NHY,NHY,NHY"
15,22.792389,73.533173,3573,Indore Ahmedabad Highway;NH 47,"Indore Ahmedabad Highway, Godhra, Panchmahals District, Gujarat, 388713",Vavadi Khurd Toll Plaza,NHAI,Gujarat;GJ,NHY,135,['cash'],276891405,0,16458.7,468,JVJN3K,223815,barrier,"NHY,NHY,NHY,NHY,NHY,NHY,SHY,SHY,SHY,NHY,NHY,NHY,NHY,NHY"
15,22.793038,73.842874,4202,Indore Ahmedabad Highway;Godhra Road;NH 47,"Indore Ahmedabad Highway, Devgadbaria, Dahod District, Gujarat, 389130",Bhatwada Godhra Toll Plaza,NHAI,Gujarat;GJ,NHY,175,['cash'],271130612,7,18693.4,467,JVJ1GB,259491.3,barrier,"NHY,NHY,NHY,NHY,NHY,SHY,SHY,SHY,NHY,NHY,NHY,NHY,NHY"
15,22.741769,74.83639,6487,Indore Ahmedabad Highway;NH 47,"Indore Ahmedabad Highway, Sardarpur, Dhar District, Madhya Pradesh, 454116",Dattigaon Toll Plaza,NHAI,Madhya Pradesh;MP,NHY,140,['cash'],271859692,0,26700,882,JVH88Z,375486.3,barrier,"NHY,NHY,NHY,NHY,SHY,SHY,SHY,NHY,NHY,NHY,NHY,NHY"
15,22.673233,75.545879,7955,Indore Ahmedabad Highway;Indore Dhar Road;NH 47,"Indore Ahmedabad Highway, Depalpur, Indore District, Madhya Pradesh, 453001",Methwada Toll Plaza,NHAI,Madhya Pradesh;MP,NHY,160,['cash'],94125848,0,31564.9,554,JVG1MH,459590,barrier,"NHY,NHY,NHY,SHY,SHY,SHY,NHY,NHY,NHY,NHY,NHY"
15,22.824767,75.938297,9057,Indore Bypass;AH 47;NH 52,"Indore Bypass, Mangalya, Madhya Pradesh, 453771",Indore Dewas Toll Plaza,NHAI,Madhya Pradesh;MP,NHY,65,['cash'],270626909,6,37321.2,557,JVG6P8,513721.7,barrier,"NHY,NHY,SHY,SHY,SHY,NHY,NHY,NHY,NHY,NHY"
15,22.928557,76.045416,9374,Dewas Bypass;AH 47;NH 52,"Dewas Bypass, Dewas Nagar, Dewas District, Madhya Pradesh, 455111",Dewas Bypass Toll Plaza,MPRDC,Madhya Pradesh;MP,NHY,15,['cash'],280683901,5,38823.1,390522100,NL40ST,531789.3,barrier,"NHY,SHY,SHY,SHY,NHY,NHY,NHY,NHY,NHY"
15,22.975258,76.218503,9693,Dewas Bhopal Corridor Road;SH 28,"Dewas Bhopal Corridor Road, Sonkatch, Dewas District, Madhya Pradesh, 455115",Bhonrasa Toll Plaza,MPRDC,Madhya Pradesh;MP,SHY,72,['cash'],94146447,0,40265.1,566,JVGHFX,552215.9,barrier,"SHY,SHY,SHY,NHY,NHY,NHY,NHY,NHY"
15,23.102401,76.875875,10849,Dewas Bhopal Corridor Road;SH 28,"Dewas Bhopal Corridor Road, Ashta, Sehore District, Madhya Pradesh, 466114",Bheel Khedi Toll Plaza,MPRDC,Madhya Pradesh;MP,SHY,42,['cash'],94135972,0,44310.6,560,JVGA8U,625311.2,barrier,"SHY,SHY,NHY,NHY,NHY,NHY,NHY"
15,23.224669,77.190847,11384,Dewas Bhopal Corridor Road;SH 28,"Dewas Bhopal Corridor Road, Huzur, Bhopal District, Madhya Pradesh, 462030",Fanda Toll Plaza,MPRDC,Madhya Pradesh;MP,SHY,33,['cash'],94097107,0,46352.2,542,JVGM8B,661644,barrier,"SHY,NHY,NHY,NHY,NHY,NHY"
15,23.023873,77.56974,12599,NH 46,"NH 46, Goharganj, Raisen District, Madhya Pradesh, 464993",Vishankheda Toll Plaza,NHAI,Madhya Pradesh;MP,NHY,40,['cash'],282800977,0,51015.5,390522165,XRCT63,718910.3,barrier,"NHY,NHY,NHY,NHY,NHY"
15,23.019309,78.118849,13845,Jabalpur Bhopal Highway;NH 45,"Jabalpur Bhopal Highway, Badi, Raisen District, Madhya Pradesh, 464665",Harshili Toll Plaza,NHAI,Madhya Pradesh;MP,NHY,145,['cash'],285440702,0,55030.1,390522272,K1M1AC,789489.1,barrier,"NHY,NHY,NHY,NHY"
15,23.088718,78.485542,14482,Jabalpur Bhopal Highway;NH 45,"Jabalpur Bhopal Highway, Udaipura, Raisen District, Madhya Pradesh, 464770",Khiriya Toll Plaza,NHAI,Madhya Pradesh;MP,NHY,95,['cash'],293476044,0,57760.6,390522274,P5TGBY,835353,barrier,"NHY,NHY,NHY"
15,23.116025,79.049117,15397,Jabalpur Bhopal Highway;NH 45,"Jabalpur Bhopal Highway, Kareli, Narsinghpur District, Madhya Pradesh, 487330",Sarasdol Toll Plaza,NHAI,Madhya Pradesh;MP,NHY,80,['cash'],286625004,0,61330.7,390522376,8D5MOR,899250.7,barrier,"NHY,NHY"
15,23.150509,79.721713,16565,Jabalpur Bhopal Highway;NH 45,"Jabalpur Bhopal Highway, Shahpura, Jabalpur District, Madhya Pradesh, 483119",Shahpura Toll Plaza,NHAI,Madhya Pradesh;MP,NHY,85,['cash'],293479667,0,66017.6,390522273,LGLAEI,975680.9,barrier,NHY
16,23.527324,72.388248,733,Ahmedabad Palanpur Highway;SH 41,"Ahmedabad Palanpur Highway, Mahesana, Mahesana District, Gujarat, 384460",Mehsana Toll Plaza,GSRDC,Gujarat;GJ,SHY,,,279154240,0,4780.7,390500069,JVIVPZ,43663,barrier,"SHY,SHY,RDA,RDA,NGQ,NHY,NHY,NHY,NHY,NHY,RDA"
16,23.186465,72.560319,1430,Ahmedabad Palanpur Highway;SH 41,"Ahmedabad Palanpur Highway, Gandhinagar, Gandhinagar District, Gujarat, 382423",Adalaj Toll Plaza,GSRDC,Gujarat;GJ,SHY,,,85169776,0,7631.7,192,JVKCUH,89277.5,barrier,"SHY,RDA,RDA,NGQ,NHY,NHY,NHY,NHY,NHY,RDA"
16,23.128532,72.592674,1582,Sardar Patel Ring Road;SP Ring Road,"Sardar Patel Ring Road, Gandhinagar, Gandhinagar District, Gujarat, 382421",Tragad Toll Plaza,,Gujarat;GJ,RDA,15,['cash'],270463361,0,8478.9,182,JVKGJ7,97671.4,barrier,"RDA,RDA,NGQ,NHY,NHY,NHY,NHY,NHY,RDA"
16,23.115423,72.642845,1685,Sardar Patel Ring Road;SP Ring Road,"Sardar Patel Ring Road, Gandhinagar, Gujarat, 382426",Bhaat Toll Plaza,,Gujarat;GJ,RDA,16,['cash'],270506139,0,8886.5,177,JVKE2Z,103133.6,barrier,"RDA,NGQ,NHY,NHY,NHY,NHY,NHY,RDA"
16,23.096256,72.686405,1801,Ahmedabad Bypass;Sardar Patel Ring Road;SP Ring Road;NH 48,"Ahmedabad Bypass, Asarva, Ahmedabad District, Gujarat, 382330",Ranasan Toll Plaza,NHAI,Gujarat;GJ,NGQ,30,['cash'],84941335,0,9333.2,181,JVKGG7,108676.7,barrier,"NGQ,NHY,NHY,NHY,NHY,NHY,RDA"
16,22.912917,72.957378,2468,Indore Ahmedabad Highway;NH 47,"Indore Ahmedabad Highway, Kathlal, Kheda District, Gujarat, 387630",Pithai Toll Plaza,NHAI,Gujarat;GJ,NHY,120,['cash'],271131433,4,12018.4,536,JVIJ50,150651.6,barrier,"NHY,NHY,NHY,NHY,NHY,RDA"
16,22.792389,73.533173,3573,Indore Ahmedabad Highway;NH 47,"Indore Ahmedabad Highway, Godhra, Panchmahals District, Gujarat, 388713",Vavadi Khurd Toll Plaza,NHAI,Gujarat;GJ,NHY,135,['cash'],276891405,0,16458.7,468,JVJN3K,223815,barrier,"NHY,NHY,NHY,NHY,RDA"
16,22.793038,73.842874,4202,Indore Ahmedabad Highway;Godhra Road;NH 47,"Indore Ahmedabad Highway, Devgadbaria, Dahod District, Gujarat, 389130",Bhatwada Godhra Toll Plaza,NHAI,Gujarat;GJ,NHY,175,['cash'],271130612,7,18693.4,467,JVJ1GB,259491.3,barrier,"NHY,NHY,NHY,RDA"
16,22.741769,74.83639,6487,Indore Ahmedabad Highway;NH 47,"Indore Ahmedabad Highway, Sardarpur, Dhar District, Madhya Pradesh, 454116",Dattigaon Toll Plaza,NHAI,Madhya Pradesh;MP,NHY,140,['cash'],271859692,0,26700,882,JVH88Z,375486.3,barrier,"NHY,NHY,RDA"
16,22.673233,75.545879,7955,Indore Ahmedabad Highway;Indore Dhar Road;NH 47,"Indore Ahmedabad Highway, Depalpur, Indore District, Madhya Pradesh, 453001",Methwada Toll Plaza,NHAI,Madhya Pradesh;MP,NHY,160,['cash'],94125848,0,31564.9,554,JVG1MH,459590,barrier,"NHY,RDA"
16,22.775577,75.860412,8756,MR 10 Bypass Road;Kushabhau Thakre Road,"MR 10 Bypass Road, Malharganj, Indore District, Madhya Pradesh, 453555",Kumerdi Toll Plaza,,Madhya Pradesh;MP,RDA,18,['cash'],270620434,0,34646.9,555,JVG2FM,502330.1,barrier,RDA
17,23.527324,72.388248,733,Ahmedabad Palanpur Highway;SH 41,"Ahmedabad Palanpur Highway, Mahesana, Mahesana District, Gujarat, 384460",Mehsana Toll Plaza,GSRDC,Gujarat;GJ,SHY,,,279154240,0,4780.7,390500069,JVIVPZ,43663,barrier,"SHY,SHY,RDA,RDA,NGQ,NHY,NHY,NHY,NHY,NHY,NHY"
17,23.186465,72.560319,1430,Ahmedabad Palanpur Highway;SH 41,"Ahmedabad Palanpur Highway, Gandhinagar, Gandhinagar District, Gujarat, 382423",Adalaj Toll Plaza,GSRDC,Gujarat;GJ,SHY,,,85169776,0,7631.7,192,JVKCUH,89277.5,barrier,"SHY,RDA,RDA,NGQ,NHY,NHY,NHY,NHY,NHY,NHY"
17,23.128532,72.592674,1582,Sardar Patel Ring Road;SP Ring Road,"Sardar Patel Ring Road, Gandhinagar, Gandhinagar District, Gujarat, 382421",Tragad Toll Plaza,,Gujarat;GJ,RDA,15,['cash'],270463361,0,8478.9,182,JVKGJ7,97671.4,barrier,"RDA,RDA,NGQ,NHY,NHY,NHY,NHY,NHY,NHY"
17,23.115423,72.642845,1685,Sardar Patel Ring Road;SP Ring Road,"Sardar Patel Ring Road, Gandhinagar, Gujarat, 382426",Bhaat Toll Plaza,,Gujarat;GJ,RDA,16,['cash'],270506139,0,8886.5,177,JVKE2Z,103133.6,barrier,"RDA,NGQ,NHY,NHY,NHY,NHY,NHY,NHY"
17,23.096256,72.686405,1801,Ahmedabad Bypass;Sardar Patel Ring Road;SP Ring Road;NH 48,"Ahmedabad Bypass, Asarva, Ahmedabad District, Gujarat, 382330",Ranasan Toll Plaza,NHAI,Gujarat;GJ,NGQ,30,['cash'],84941335,0,9333.2,181,JVKGG7,108676.7,barrier,"NGQ,NHY,NHY,NHY,NHY,NHY,NHY"
17,22.912917,72.957378,2468,Indore Ahmedabad Highway;NH 47,"Indore Ahmedabad Highway, Kathlal, Kheda District, Gujarat, 387630",Pithai Toll Plaza,NHAI,Gujarat;GJ,NHY,120,['cash'],271131433,4,12018.4,536,JVIJ50,150651.6,barrier,"NHY,NHY,NHY,NHY,NHY,NHY"
17,22.792389,73.533173,3573,Indore Ahmedabad Highway;NH 47,"Indore Ahmedabad Highway, Godhra, Panchmahals District, Gujarat, 388713",Vavadi Khurd Toll Plaza,NHAI,Gujarat;GJ,NHY,135,['cash'],276891405,0,16458.7,468,JVJN3K,223815,barrier,"NHY,NHY,NHY,NHY,NHY"
17,22.793038,73.842874,4202,Indore Ahmedabad Highway;Godhra Road;NH 47,"Indore Ahmedabad Highway, Devgadbaria, Dahod District, Gujarat, 389130",Bhatwada Godhra Toll Plaza,NHAI,Gujarat;GJ,NHY,175,['cash'],271130612,7,18693.4,467,JVJ1GB,259491.3,barrier,"NHY,NHY,NHY,NHY"
17,22.741769,74.83639,6487,Indore Ahmedabad Highway;NH 47,"Indore Ahmedabad Highway, Sardarpur, Dhar District, Madhya Pradesh, 454116",Dattigaon Toll Plaza,NHAI,Madhya Pradesh;MP,NHY,140,['cash'],271859692,0,26700,882,JVH88Z,375486.3,barrier,"NHY,NHY,NHY"
17,22.673233,75.545879,7955,Indore Ahmedabad Highway;Indore Dhar Road;NH 47,"Indore Ahmedabad Highway, Depalpur, Indore District, Madhya Pradesh, 453001",Methwada Toll Plaza,NHAI,Madhya Pradesh;MP,NHY,160,['cash'],94125848,0,31564.9,554,JVG1MH,459590,barrier,"NHY,NHY"
17,22.824767,75.938297,9057,Indore Bypass;AH 47;NH 52,"Indore Bypass, Mangalya, Madhya Pradesh, 453771",Indore Dewas Toll Plaza,NHAI,Madhya Pradesh;MP,NHY,65,['cash'],270626909,6,37321.2,557,JVG6P8,513721.7,barrier,NHY
18,23.527324,72.388248,733,Ahmedabad Palanpur Highway;SH 41,"Ahmedabad Palanpur Highway, Mahesana, Mahesana District, Gujarat, 384460",Mehsana Toll Plaza,GSRDC,Gujarat;GJ,SHY,,,279154240,0,4780.7,390500069,JVIVPZ,43663,barrier,"SHY,SHY,RDA,RDA,NGQ,NHY,NHY,NHY,NHY,NHY,NHY,NHY,SHY,SHY,SHY,SHY,SHY,NHY"
18,23.186465,72.560319,1430,Ahmedabad Palanpur Highway;SH 41,"Ahmedabad Palanpur Highway, Gandhinagar, Gandhinagar District, Gujarat, 382423",Adalaj Toll Plaza,GSRDC,Gujarat;GJ,SHY,,,85169776,0,7631.7,192,JVKCUH,89277.5,barrier,"SHY,RDA,RDA,NGQ,NHY,NHY,NHY,NHY,NHY,NHY,NHY,SHY,SHY,SHY,SHY,SHY,NHY"
18,23.128532,72.592674,1582,Sardar Patel Ring Road;SP Ring Road,"Sardar Patel Ring Road, Gandhinagar, Gandhinagar District, Gujarat, 382421",Tragad Toll Plaza,,Gujarat;GJ,RDA,15,['cash'],270463361,0,8478.9,182,JVKGJ7,97671.4,barrier,"RDA,RDA,NGQ,NHY,NHY,NHY,NHY,NHY,NHY,NHY,SHY,SHY,SHY,SHY,SHY,NHY"
18,23.115423,72.642845,1685,Sardar Patel Ring Road;SP Ring Road,"Sardar Patel Ring Road, Gandhinagar, Gujarat, 382426",Bhaat Toll Plaza,,Gujarat;GJ,RDA,16,['cash'],270506139,0,8886.5,177,JVKE2Z,103133.6,barrier,"RDA,NGQ,NHY,NHY,NHY,NHY,NHY,NHY,NHY,SHY,SHY,SHY,SHY,SHY,NHY"
18,23.096256,72.686405,1801,Ahmedabad Bypass;Sardar Patel Ring Road;SP Ring Road;NH 48,"Ahmedabad Bypass, Asarva, Ahmedabad District, Gujarat, 382330",Ranasan Toll Plaza,NHAI,Gujarat;GJ,NGQ,30,['cash'],84941335,0,9333.2,181,JVKGG7,108676.7,barrier,"NGQ,NHY,NHY,NHY,NHY,NHY,NHY,NHY,SHY,SHY,SHY,SHY,SHY,NHY"
18,22.912917,72.957378,2468,Indore Ahmedabad Highway;NH 47,"Indore Ahmedabad Highway, Kathlal, Kheda District, Gujarat, 387630",Pithai Toll Plaza,NHAI,Gujarat;GJ,NHY,120,['cash'],271131433,4,12018.4,536,JVIJ50,150651.6,barrier,"NHY,NHY,NHY,NHY,NHY,NHY,NHY,SHY,SHY,SHY,SHY,SHY,NHY"
18,22.792389,73.533173,3573,Indore Ahmedabad Highway;NH 47,"Indore Ahmedabad Highway, Godhra, Panchmahals District, Gujarat, 388713",Vavadi Khurd Toll Plaza,NHAI,Gujarat;GJ,NHY,135,['cash'],276891405,0,16458.7,468,JVJN3K,223815,barrier,"NHY,NHY,NHY,NHY,NHY,NHY,SHY,SHY,SHY,SHY,SHY,NHY"
18,22.793038,73.842874,4202,Indore Ahmedabad Highway;Godhra Road;NH 47,"Indore Ahmedabad Highway, Devgadbaria, Dahod District, Gujarat, 389130",Bhatwada Godhra Toll Plaza,NHAI,Gujarat;GJ,NHY,175,['cash'],271130612,7,18693.4,467,JVJ1GB,259491.3,barrier,"NHY,NHY,NHY,NHY,NHY,SHY,SHY,SHY,SHY,SHY,NHY"
18,22.741769,74.83639,6487,Indore Ahmedabad Highway;NH 47,"Indore Ahmedabad Highway, Sardarpur, Dhar District, Madhya Pradesh, 454116",Dattigaon Toll Plaza,NHAI,Madhya Pradesh;MP,NHY,140,['cash'],271859692,0,26700,882,JVH88Z,375486.3,barrier,"NHY,NHY,NHY,NHY,SHY,SHY,SHY,SHY,SHY,NHY"
18,22.673233,75.545879,7955,Indore Ahmedabad Highway;Indore Dhar Road;NH 47,"Indore Ahmedabad Highway, Depalpur, Indore District, Madhya Pradesh, 453001",Methwada Toll Plaza,NHAI,Madhya Pradesh;MP,NHY,160,['cash'],94125848,0,31564.9,554,JVG1MH,459590,barrier,"NHY,NHY,NHY,SHY,SHY,SHY,SHY,SHY,NHY"
18,22.824767,75.938297,9057,Indore Bypass;AH 47;NH 52,"Indore Bypass, Mangalya, Madhya Pradesh, 453771",Indore Dewas Toll Plaza,NHAI,Madhya Pradesh;MP,NHY,65,['cash'],270626909,6,37321.2,557,JVG6P8,513721.7,barrier,"NHY,NHY,SHY,SHY,SHY,SHY,SHY,NHY"
18,22.928557,76.045416,9374,Dewas Bypass;AH 47;NH 52,"Dewas Bypass, Dewas Nagar, Dewas District, Madhya Pradesh, 455111",Dewas Bypass Toll Plaza,MPRDC,Madhya Pradesh;MP,NHY,15,['cash'],280683901,5,38823.1,390522100,NL40ST,531789.3,barrier,"NHY,SHY,SHY,SHY,SHY,SHY,NHY"
18,22.975258,76.218503,9693,Dewas Bhopal Corridor Road;SH 28,"Dewas Bhopal Corridor Road, Sonkatch, Dewas District, Madhya Pradesh, 455115",Bhonrasa Toll Plaza,MPRDC,Madhya Pradesh;MP,SHY,72,['cash'],94146447,0,40265.1,566,JVGHFX,552215.9,barrier,"SHY,SHY,SHY,SHY,SHY,NHY"
18,23.102401,76.875875,10849,Dewas Bhopal Corridor Road;SH 28,"Dewas Bhopal Corridor Road, Ashta, Sehore District, Madhya Pradesh, 466114",Bheel Khedi Toll Plaza,MPRDC,Madhya Pradesh;MP,SHY,42,['cash'],94135972,0,44310.6,560,JVGA8U,625311.2,barrier,"SHY,SHY,SHY,SHY,NHY"
18,23.224669,77.190847,11384,Dewas Bhopal Corridor Road;SH 28,"Dewas Bhopal Corridor Road, Huzur, Bhopal District, Madhya Pradesh, 462030",Fanda Toll Plaza,MPRDC,Madhya Pradesh;MP,SHY,33,['cash'],94097107,0,46352.2,542,JVGM8B,661644,barrier,"SHY,SHY,SHY,NHY"
18,23.310279,77.319222,11692,Bhopal Bypass;SH 28,"Bhopal Bypass, Bhopal, Madhya Pradesh, 462036",Bhopal Bypass Toll Plaza,,Madhya Pradesh;MP,SHY,30,['cash'],94097038,0,47497.9,541,JVGLP4,679074,barrier,"SHY,SHY,NHY"
18,23.371126,77.502849,12040,Bhopal Sanchi Road;SH 28,"Bhopal Sanchi Road, Huzur, Bhopal District, Madhya Pradesh, 462010",Sukhi Sewaniya Toll Plaza,MPRDC,Madhya Pradesh;MP,SHY,,,286123270,0,49266.7,390522964,8D5MAT,700904.7,barrier,"SHY,NHY"
18,23.797136,78.545356,14207,Vidisha Sagar Road;NH 146,"Vidisha Sagar Road, Rahatgarh, Sagar District, Madhya Pradesh, 470120",Joharia Shaikh Toll Plaza,NHAI,Madhya Pradesh;MP,NHY,80,['cash'],281821315,0,57602.8,390522763,PULSN4,831816.5,barrier,NHY
19,23.527324,72.388248,733,Ahmedabad Palanpur Highway;SH 41,"Ahmedabad Palanpur Highway, Mahesana, Mahesana District, Gujarat, 384460",Mehsana Toll Plaza,GSRDC,Gujarat;GJ,SHY,,,279154240,0,4780.7,390500069,JVIVPZ,43663,barrier,"SHY,SHY,RDA,RDA,NGQ,NHY,NHY,NHY,NHY,NHY,NHY,NHY,SHY,SHY,SHY,NHY"
19,23.186465,72.560319,1430,Ahmedabad Palanpur Highway;SH 41,"Ahmedabad Palanpur Highway, Gandhinagar, Gandhinagar District, Gujarat, 382423",Adalaj Toll Plaza,GSRDC,Gujarat;GJ,SHY,,,85169776,0,7631.7,192,JVKCUH,89277.5,barrier,"SHY,RDA,RDA,NGQ,NHY,NHY,NHY,NHY,NHY,NHY,NHY,SHY,SHY,SHY,NHY"
19,23.128532,72.592674,1582,Sardar Patel Ring Road;SP Ring Road,"Sardar Patel Ring Road, Gandhinagar, Gandhinagar District, Gujarat, 382421",Tragad Toll Plaza,,Gujarat;GJ,RDA,15,['cash'],270463361,0,8478.9,182,JVKGJ7,97671.4,barrier,"RDA,RDA,NGQ,NHY,NHY,NHY,NHY,NHY,NHY,NHY,SHY,SHY,SHY,NHY"
19,23.115423,72.642845,1685,Sardar Patel Ring Road;SP Ring Road,"Sardar Patel Ring Road, Gandhinagar, Gujarat, 382426",Bhaat Toll Plaza,,Gujarat;GJ,RDA,16,['cash'],270506139,0,8886.5,177,JVKE2Z,103133.6,barrier,"RDA,NGQ,NHY,NHY,NHY,NHY,NHY,NHY,NHY,SHY,SHY,SHY,NHY"
19,23.096256,72.686405,1801,Ahmedabad Bypass;Sardar Patel Ring Road;SP Ring Road;NH 48,"Ahmedabad Bypass, Asarva, Ahmedabad District, Gujarat, 382330",Ranasan Toll Plaza,NHAI,Gujarat;GJ,NGQ,30,['cash'],84941335,0,9333.2,181,JVKGG7,108676.7,barrier,"NGQ,NHY,NHY,NHY,NHY,NHY,NHY,NHY,SHY,SHY,SHY,NHY"
19,22.912917,72.957378,2468,Indore Ahmedabad Highway;NH 47,"Indore Ahmedabad Highway, Kathlal, Kheda District, Gujarat, 387630",Pithai Toll Plaza,NHAI,Gujarat;GJ,NHY,120,['cash'],271131433,4,12018.4,536,JVIJ50,150651.6,barrier,"NHY,NHY,NHY,NHY,NHY,NHY,NHY,SHY,SHY,SHY,NHY"
19,22.792389,73.533173,3573,Indore Ahmedabad Highway;NH 47,"Indore Ahmedabad Highway, Godhra, Panchmahals District, Gujarat, 388713",Vavadi Khurd Toll Plaza,NHAI,Gujarat;GJ,NHY,135,['cash'],276891405,0,16458.7,468,JVJN3K,223815,barrier,"NHY,NHY,NHY,NHY,NHY,NHY,SHY,SHY,SHY,NHY"
19,22.793038,73.842874,4202,Indore Ahmedabad Highway;Godhra Road;NH 47,"Indore Ahmedabad Highway, Devgadbaria, Dahod District, Gujarat, 389130",Bhatwada Godhra Toll Plaza,NHAI,Gujarat;GJ,NHY,175,['cash'],271130612,7,18693.4,467,JVJ1GB,259491.3,barrier,"NHY,NHY,NHY,NHY,NHY,SHY,SHY,SHY,NHY"
19,22.741769,74.83639,6487,Indore Ahmedabad Highway;NH 47,"Indore Ahmedabad Highway, Sardarpur, Dhar District, Madhya Pradesh, 454116",Dattigaon Toll Plaza,NHAI,Madhya Pradesh;MP,NHY,140,['cash'],271859692,0,26700,882,JVH88Z,375486.3,barrier,"NHY,NHY,NHY,NHY,SHY,SHY,SHY,NHY"
19,22.673233,75.545879,7955,Indore Ahmedabad Highway;Indore Dhar Road;NH 47,"Indore Ahmedabad Highway, Depalpur, Indore District, Madhya Pradesh, 453001",Methwada Toll Plaza,NHAI,Madhya Pradesh;MP,NHY,160,['cash'],94125848,0,31564.9,554,JVG1MH,459590,barrier,"NHY,NHY,NHY,SHY,SHY,SHY,NHY"
19,22.824767,75.938297,9057,Indore Bypass;AH 47;NH 52,"Indore Bypass, Mangalya, Madhya Pradesh, 453771",Indore Dewas Toll Plaza,NHAI,Madhya Pradesh;MP,NHY,65,['cash'],270626909,6,37321.2,557,JVG6P8,513721.7,barrier,"NHY,NHY,SHY,SHY,SHY,NHY"
19,22.928557,76.045416,9374,Dewas Bypass;AH 47;NH 52,"Dewas Bypass, Dewas Nagar, Dewas District, Madhya Pradesh, 455111",Dewas Bypass Toll Plaza,MPRDC,Madhya Pradesh;MP,NHY,15,['cash'],280683901,5,38823.1,390522100,NL40ST,531789.3,barrier,"NHY,SHY,SHY,SHY,NHY"
19,22.975258,76.218503,9693,Dewas Bhopal Corridor Road;SH 28,"Dewas Bhopal Corridor Road, Sonkatch, Dewas District, Madhya Pradesh, 455115",Bhonrasa Toll Plaza,MPRDC,Madhya Pradesh;MP,SHY,72,['cash'],94146447,0,40265.1,566,JVGHFX,552215.9,barrier,"SHY,SHY,SHY,NHY"
19,23.102401,76.875875,10849,Dewas Bhopal Corridor Road;SH 28,"Dewas Bhopal Corridor Road, Ashta, Sehore District, Madhya Pradesh, 466114",Bheel Khedi Toll Plaza,MPRDC,Madhya Pradesh;MP,SHY,42,['cash'],94135972,0,44310.6,560,JVGA8U,625311.2,barrier,"SHY,SHY,NHY"
19,23.224669,77.190847,11384,Dewas Bhopal Corridor Road;SH 28,"Dewas Bhopal Corridor Road, Huzur, Bhopal District, Madhya Pradesh, 462030",Fanda Toll Plaza,MPRDC,Madhya Pradesh;MP,SHY,33,['cash'],94097107,0,46352.2,542,JVGM8B,661644,barrier,"SHY,NHY"
19,23.023873,77.56974,12599,NH 46,"NH 46, Goharganj, Raisen District, Madhya Pradesh, 464993",Vishankheda Toll Plaza,NHAI,Madhya Pradesh;MP,NHY,40,['cash'],282800977,0,51015.5,390522165,XRCT63,718910.3,barrier,NHY
2,12.840228,77.418022,151,Bangalore Mysore Expressway;Bengaluru Mysore Road;NH 275,"Bangalore Mysore Expressway, Ramanagara, Ramanagara District, Karnataka, 562109",Kanmanike Toll Plaza,NHAI,Karnataka;KA,NHY,165,['cash'],288839329,0,1078.4,390523456,MEDRAD,7978.4,barrier,"NHY,NGQ,NGQ,NGQ,NGQ,NGQ,NGQ,NGQ,NGQ,RDA,RDA,RDA,NGQ,NGQ,NGQ,NGQ,NGQ,NGQ,NGQ,NGQ,NGQ,NGQ,NHY,NHY,NHY,NHY,NHY"
2,13.193642,77.64968,1133,Bangalore Bellary Road;Bangalore Hyderabad Highway;International Airport Road;AH 43;NH 44,"Bangalore Bellary Road, Navarathna Agrahara, Bengaluru, Karnataka, 562157",Navayuga Devanahalli Toll Plaza,NHAI,Karnataka;KA,NGQ,110,['cash'],271149899,0,5863.8,426,JVPKPB,59674.7,barrier,"NGQ,NGQ,NGQ,NGQ,NGQ,NGQ,NGQ,NGQ,RDA,RDA,RDA,NGQ,NGQ,NGQ,NGQ,NGQ,NGQ,NGQ,NGQ,NGQ,NGQ,NHY,NHY,NHY,NHY,NHY"
2,13.792897,77.764213,2234,Srinagar Kanyakumari Highway;AH 43;NH 44,"NH-7, Bangalore Hyderabad Road, Bagepalli, Chikkaballapur District;Chikkaballapura District, Karnataka, 561207",Bagepalli Toll Plaza,NHAI,Karnataka;KA,NGQ,115,['cash'],103960020,4,10259.4,64,JVQS1N,132322,barrier,"NGQ,NGQ,NGQ,NGQ,NGQ,NGQ,NGQ,RDA,RDA,RDA,NGQ,NGQ,NGQ,NGQ,NGQ,NGQ,NGQ,NGQ,NGQ,NGQ,NHY,NHY,NHY,NHY,NHY"
2,14.502084,77.63124,3748,Srinagar Kanyakumari Highway;AH 43;NH 44,"Srinagar Kanyakumari Highway, Raptadu, Ananthapuramu District, Andhra Pradesh, 515522",Marur Toll Plaza,NHAI,Andhra Pradesh;AP,NGQ,135,['cash'],274837040,0,15877,696,JVUC1U,221851.9,barrier,"NGQ,NGQ,NGQ,NGQ,NGQ,NGQ,RDA,RDA,RDA,NGQ,NGQ,NGQ,NGQ,NGQ,NGQ,NGQ,NGQ,NGQ,NGQ,NHY,NHY,NHY,NHY,NHY"
2,15.061797,77.630227,4810,Srinagar Kanyakumari Highway;AH 43;NH 44,"Srinagar Kanyakumari Highway, Peddavadugur, Ananthapuramu District, Andhra Pradesh, 515401",Kasepalli Toll Plaza,NHAI,Andhra Pradesh;AP,NGQ,125,['cash'],286109621,0,21270.4,213,JVVCS4,288027,barrier,"NGQ,NGQ,NGQ,NGQ,NGQ,RDA,RDA,RDA,NGQ,NGQ,NGQ,NGQ,NGQ,NGQ,NGQ,NGQ,NGQ,NGQ,NHY,NHY,NHY,NHY,NHY"
2,15.486484,77.901044,5779,Srinagar Kanyakumari Highway;AH 43;NH 44,"Srinagar Kanyakumari Highway, Krishnagiri, Kurnool District, Andhra Pradesh, 518216",Amakathadu Toll Plaza,NHAI,Andhra Pradesh;AP,NGQ,130,['cash'],274837016,0,25067.3,214,JVVE1U,346855.9,barrier,"NGQ,NGQ,NGQ,NGQ,RDA,RDA,RDA,NGQ,NGQ,NGQ,NGQ,NGQ,NGQ,NGQ,NGQ,NGQ,NGQ,NHY,NHY,NHY,NHY,NHY"
2,15.887732,78.016874,6598,Srinagar Kanyakumari Highway;AH 43;NH 44,"Srinagar Kanyakumari Highway, Undavelly, Jogulamba Gadwal District, Telangana, 509128",Pullur Toll Plaza,NHAI,Telangana;TG,NGQ,130,['cash'],103952360,0,28255,215,JVXWF5,396479.8,barrier,"NGQ,NGQ,NGQ,RDA,RDA,RDA,NGQ,NGQ,NGQ,NGQ,NGQ,NGQ,NGQ,NGQ,NGQ,NGQ,NHY,NHY,NHY,NHY,NHY"
2,16.53572,77.94462,7892,Srinagar Kanyakumari Highway;AH 43;NH 44,"Srinagar Kanyakumari Highway, Addakal, Mahabubnagar District, Telangana, 509382",Shakhapur Toll Plaza,NHAI,Telangana;TG,NGQ,65,['cash'],270959913,0,33755.2,853,JVXDM6,482184.5,barrier,"NGQ,NGQ,RDA,RDA,RDA,NGQ,NGQ,NGQ,NGQ,NGQ,NGQ,NGQ,NGQ,NGQ,NGQ,NHY,NHY,NHY,NHY,NHY"
2,17.00592,78.194435,8834,Srinagar Kanyakumari Highway;AH 43;NH 44,"NH 7, Kurnool Road, Mahaboobnagar, Farooqnagar, Rangareddy District;Ranga Reddy District;KV Ranga Reddy District, Telangana, 509202",Raikal Toll Plaza,NHAI,Telangana;TG,NGQ,80,['cash'],270961339,0,37759.7,854,JVXUN7,542875.3,barrier,"NGQ,RDA,RDA,RDA,NGQ,NGQ,NGQ,NGQ,NGQ,NGQ,NGQ,NGQ,NGQ,NGQ,NHY,NHY,NHY,NHY,NHY"
2,17.249586,78.37519,9425,,"Shamshabad, Hyderabad, Telangana, 501218",Shamshabad Entry Toll Plaza,HMDA,Telangana;TG,RDA,120,['cash'],94303407,0,39964.9,390523080,JVWPVM,577413.7,ticket,"RDA,RDA,RDA,NGQ,NGQ,NGQ,NGQ,NGQ,NGQ,NGQ,NGQ,NGQ,NGQ,NHY,NHY,NHY,NHY,NHY"
2,17.603289,78.475744,10346,Nehru Outer Ring Road;Outer Ring Road;ORR,"Nehru Outer Ring Road, Seethariguda, Hyderabad, Telangana, 501401",Medchal Toll Plaza,,Telangana;TG,RDA,,,94307636,0,43268.6,598,H19BMQ,645526.8,barrier,"RDA,RDA,NGQ,NGQ,NGQ,NGQ,NGQ,NGQ,NGQ,NGQ,NGQ,NGQ,NHY,NHY,NHY,NHY,NHY"
2,17.598015,78.490995,10402,,"Kandlakoya, Hyderabad, Telangana, 501401",Medchal Exit Toll Plaza,HMDA,Telangana;TG,RDA,,,270955885,7,43453.2,390522086,JVX1RP,647771,ticket,"RDA,NGQ,NGQ,NGQ,NGQ,NGQ,NGQ,NGQ,NGQ,NGQ,NGQ,NHY,NHY,NHY,NHY,NHY"
2,17.801157,78.471591,10907,Srinagar Kanyakumari Highway;AH 43;NH 44,"NH 7 Road, Toopran, Toopran;Tupran, Medak District, Telangana, 502336",Manoharabad Toll Plaza,NHAI,Telangana;TG,NGQ,90,['cash'],285086774,0,45344.7,739,JW4FNC,671448.1,barrier,"NGQ,NGQ,NGQ,NGQ,NGQ,NGQ,NGQ,NGQ,NGQ,NGQ,NHY,NHY,NHY,NHY,NHY"
2,18.205053,78.3983,11839,Srinagar Kanyakumari Highway;AH 43;NH 44,"Srinagar Kanyakumari Highway, Bhiknoor, Kamareddy District, Telangana, 503101",Bhiknoor Toll Plaza,NHAI,Telangana;TG,NGQ,90,['cash'],276823454,0,48247,390500023,VKK6ME,722292.7,barrier,"NGQ,NGQ,NGQ,NGQ,NGQ,NGQ,NGQ,NGQ,NGQ,NHY,NHY,NHY,NHY,NHY"
2,18.538327,78.239653,12627,Srinagar Kanyakumari Highway;AH 43;NH 44,"Srinagar Kanyakumari Highway, Indalwai, Nizamabad District, Telangana, 503164",Indalwai Toll Plaza,NHAI,Telangana;TG,NGQ,85,['cash'],93750976,6,51273.5,509,JVXQ2T,770970,barrier,"NGQ,NGQ,NGQ,NGQ,NGQ,NGQ,NGQ,NGQ,NHY,NHY,NHY,NHY,NHY"
2,19.026579,78.362577,13656,Srinagar Kanyakumari Highway;AH 43;NH 44,"Srinagar Kanyakumari Highway, Soan, Nirmal District, Telangana, 504105",Gamjal Toll Plaza,NHAI,Telangana;TG,NGQ,60,['cash'],93942893,6,55333,221,JVXT2L,834971.2,barrier,"NGQ,NGQ,NGQ,NGQ,NGQ,NGQ,NGQ,NHY,NHY,NHY,NHY,NHY"
2,19.279922,78.409329,14396,Srinagar Kanyakumari Highway;AH 43;NH 44,"Srinagar Kanyakumari Highway, Neradigonda, Adilabad District, Telangana, 504323",Rolmamda Toll Plaza,NHAI,Telangana;TG,NGQ,105,['cash'],285087212,0,57951.6,222,JVXRCW,876758.5,barrier,"NGQ,NGQ,NGQ,NGQ,NGQ,NGQ,NHY,NHY,NHY,NHY,NHY"
2,19.780937,78.565612,15411,Srinagar Kanyakumari Highway;AH 43;NH 44,"Srinagar Kanyakumari Highway, Jainad, Adilabad District, Telangana, 504309",Pippalwada Toll Plaza,NHAI,Telangana;TG,NGQ,95,['cash'],93942485,0,62403.1,226,JVXQQS,940645.1,barrier,"NGQ,NGQ,NGQ,NGQ,NGQ,NHY,NHY,NHY,NHY,NHY"
2,20.019386,78.540194,15893,Srinagar Kanyakumari Highway;AH 43;NH 44,"Srinagar Kanyakumari Highway, Kelapur, Yavatmal District, Maharashtra, 445302",Kelapur Toll Plaza,NHAI,Maharashtra;MH,NGQ,105,['cash'],93751037,2,64407.5,518,JVNQQM,970059.6,barrier,"NGQ,NGQ,NGQ,NGQ,NHY,NHY,NHY,NHY,NHY"
2,20.450486,78.75504,16860,Srinagar Kanyakumari Highway;AH 43;NH 44,"Srinagar Kanyakumari Highway, Hinganghat, Wardha District, Maharashtra, 442307",Daroda Toll Plaza,NHAI,Maharashtra;MH,NGQ,115,['cash'],293285344,5,68511.5,534,JVNU3V,1027721.4,barrier,"NGQ,NGQ,NGQ,NHY,NHY,NHY,NHY,NHY"
2,20.854786,78.962971,17726,Srinagar Kanyakumari Highway;AH 43;NH 44,"Srinagar Kanyakumari Highway, Borkhedi, Maharashtra, 441108",Borkhedi Nagpur Bypass Toll Plaza,NHAI,Maharashtra;MH,NGQ,150,['cash'],87843109,5,72529.7,376,JVNK42,1084546,barrier,"NGQ,NGQ,NHY,NHY,NHY,NHY,NHY"
2,21.028294,79.06892,18102,Nagpur Bypass;Outer Ring Road;AH 43;NH 44,"Nagpur Bypass, Nagpur Rural, Nagpur District, Maharashtra, 441108",Panjari Toll Plaza,NHAI,Maharashtra;MH,NGQ,145,['cash'],87814452,5,74549.6,248,JVO8CV,1108562.8,barrier,"NGQ,NHY,NHY,NHY,NHY,NHY"
2,21.139587,79.3651,18668,Mumbai Kolkata Highway;Great Eastern Highway;AH 46;NH 53,"Mumbai Kolkata Highway, Mauda, Nagpur District, Maharashtra, 441104",WEPL Mathani Toll Plaza,NHAI,Maharashtra;MH,NHY,65,['cash'],104022529,5,77590.7,692,JVM9V6,1147451.5,barrier,"NHY,NHY,NHY,NHY,NHY"
2,21.13965,79.675258,19242,Mumbai Kolkata Highway;Great Eastern Highway;AH 46;NH 53,"Mumbai Kolkata Highway, Bhandara, Bhandara District, Maharashtra, 441924",Kardha Toll Plaza,NHAI,Maharashtra;MH,NHY,21,['cash'],104022540,2,80125.4,693,JVOC0I,1181482.1,barrier,"NHY,NHY,NHY,NHY"
2,21.088324,80.034127,19819,Mumbai Kolkata Highway;Great Eastern Highway;AH 46;NH 53,"Mumbai Kolkata Highway, Sakoli, Bhandara District, Maharashtra, 441802",Sendurwafa Toll Plaza,NHAI,Maharashtra;MH,NHY,95,['cash'],104022513,4,83271.2,691,JVOBDI,1221721,barrier,"NHY,NHY,NHY"
2,21.117942,81.122385,21633,Mumbai Kolkata Highway;AH 46;NH 53,"Mumbai Kolkata Highway, Rajnandgaon, Rajnandgaon District, Chhattisgarh, 491443",Thakurtola Toll Plaza,NHAI,Chhattisgarh;CT,NHY,110,['cash'],267889920,0,91627.7,661,JVZKL7,1339232.9,barrier,"NHY,NHY"
2,21.214526,81.288009,21998,Durg Bypass;Mumbai Kolkata Highway;AH 46;NH 53,"Durg Bypass, Durg, Durg District, Chhattisgarh, 491001",Durg Bypass Dhamdanaka Toll Plaza,NHAI,Chhattisgarh;CT,NHY,75,['cash'],103935082,0,93068.3,662,JVZL34,1362598.5,barrier,NHY
20,23.527324,72.388248,733,Ahmedabad Palanpur Highway;SH 41,"Ahmedabad Palanpur Highway, Mahesana, Mahesana District, Gujarat, 384460",Mehsana Toll Plaza,GSRDC,Gujarat;GJ,SHY,,,279154240,0,4780.7,390500069,JVIVPZ,43663,barrier,"SHY,SHY,RDA,RDA,NGQ,NHY,NHY,NHY,NHY,NHY,SHY,SHY"
20,23.186465,72.560319,1430,Ahmedabad Palanpur Highway;SH 41,"Ahmedabad Palanpur Highway, Gandhinagar, Gandhinagar District, Gujarat, 382423",Adalaj Toll Plaza,GSRDC,Gujarat;GJ,SHY,,,85169776,0,7631.7,192,JVKCUH,89277.5,barrier,"SHY,RDA,RDA,NGQ,NHY,NHY,NHY,NHY,NHY,SHY,SHY"
20,23.128532,72.592674,1582,Sardar Patel Ring Road;SP Ring Road,"Sardar Patel Ring Road, Gandhinagar, Gandhinagar District, Gujarat, 382421",Tragad Toll Plaza,,Gujarat;GJ,RDA,15,['cash'],270463361,0,8478.9,182,JVKGJ7,97671.4,barrier,"RDA,RDA,NGQ,NHY,NHY,NHY,NHY,NHY,SHY,SHY"
20,23.115423,72.642845,1685,Sardar Patel Ring Road;SP Ring Road,"Sardar Patel Ring Road, Gandhinagar, Gujarat, 382426",Bhaat Toll Plaza,,Gujarat;GJ,RDA,16,['cash'],270506139,0,8886.5,177,JVKE2Z,103133.6,barrier,"RDA,NGQ,NHY,NHY,NHY,NHY,NHY,SHY,SHY"
20,23.096256,72.686405,1801,Ahmedabad Bypass;Sardar Patel Ring Road;SP Ring Road;NH 48,"Ahmedabad Bypass, Asarva, Ahmedabad District, Gujarat, 382330",Ranasan Toll Plaza,NHAI,Gujarat;GJ,NGQ,30,['cash'],84941335,0,9333.2,181,JVKGG7,108676.7,barrier,"NGQ,NHY,NHY,NHY,NHY,NHY,SHY,SHY"
20,22.912917,72.957378,2468,Indore Ahmedabad Highway;NH 47,"Indore Ahmedabad Highway, Kathlal, Kheda District, Gujarat, 387630",Pithai Toll Plaza,NHAI,Gujarat;GJ,NHY,120,['cash'],271131433,4,12018.4,536,JVIJ50,150651.6,barrier,"NHY,NHY,NHY,NHY,NHY,SHY,SHY"
20,22.792389,73.533173,3573,Indore Ahmedabad Highway;NH 47,"Indore Ahmedabad Highway, Godhra, Panchmahals District, Gujarat, 388713",Vavadi Khurd Toll Plaza,NHAI,Gujarat;GJ,NHY,135,['cash'],276891405,0,16458.7,468,JVJN3K,223815,barrier,"NHY,NHY,NHY,NHY,SHY,SHY"
20,22.793038,73.842874,4202,Indore Ahmedabad Highway;Godhra Road;NH 47,"Indore Ahmedabad Highway, Devgadbaria, Dahod District, Gujarat, 389130",Bhatwada Godhra Toll Plaza,NHAI,Gujarat;GJ,NHY,175,['cash'],271130612,7,18693.4,467,JVJ1GB,259491.3,barrier,"NHY,NHY,NHY,SHY,SHY"
20,22.741769,74.83639,6487,Indore Ahmedabad Highway;NH 47,"Indore Ahmedabad Highway, Sardarpur, Dhar District, Madhya Pradesh, 454116",Dattigaon Toll Plaza,NHAI,Madhya Pradesh;MP,NHY,140,['cash'],271859692,0,26700,882,JVH88Z,375486.3,barrier,"NHY,NHY,SHY,SHY"
20,22.673233,75.545879,7955,Indore Ahmedabad Highway;Indore Dhar Road;NH 47,"Indore Ahmedabad Highway, Depalpur, Indore District, Madhya Pradesh, 453001",Methwada Toll Plaza,NHAI,Madhya Pradesh;MP,NHY,160,['cash'],94125848,0,31564.9,554,JVG1MH,459590,barrier,"NHY,SHY,SHY"
20,22.817363,75.849082,8761,Ujjain Indore Road;SH 59,"Ujjain Indore Road, Malharganj, Indore District, Madhya Pradesh, 453111",Baroli Toll Plaza,MPRDC,Madhya Pradesh;MP,SHY,35,['cash'],94132016,0,34716.2,556,JVG3CZ,503241.2,barrier,"SHY,SHY"
20,23.08138,75.817689,9341,Ujjain Indore Road;SH 59,"Ujjain Indore Road, Ujjain Rural, Ujjain District, Madhya Pradesh, 456006",Ninora Toll Plaza,MPRDC,Madhya Pradesh;MP,SHY,35,['cash'],94149396,0,36742.1,595,JVGI8M,534141.5,barrier,SHY
21,23.527324,72.388248,733,Ahmedabad Palanpur Highway;SH 41,"Ahmedabad Palanpur Highway, Mahesana, Mahesana District, Gujarat, 384460",Mehsana Toll Plaza,GSRDC,Gujarat;GJ,SHY,,,279154240,0,4780.7,390500069,JVIVPZ,43663,barrier,"SHY,SHY,RDA,RDA,NGQ,NGQ,NGQ,NGQ,NGQ,NGQ,NGQ,NGQ,NGQ,NGQ,NGQ,NHY,NHY,RDA,NGQ,NGQ,NGQ,NGQ,NGQ,NGQ,NGQ,NGQ,NGQ,NGQ,NGQ,NGQ,NGQ,NGQ,NGQ,NGQ,NGQ,NGQ,NGQ,NGQ,NGQ"
21,23.186465,72.560319,1430,Ahmedabad Palanpur Highway;SH 41,"Ahmedabad Palanpur Highway, Gandhinagar, Gandhinagar District, Gujarat, 382423",Adalaj Toll Plaza,GSRDC,Gujarat;GJ,SHY,,,85169776,0,7631.7,192,JVKCUH,89277.5,barrier,"SHY,RDA,RDA,NGQ,NGQ,NGQ,NGQ,NGQ,NGQ,NGQ,NGQ,NGQ,NGQ,NGQ,NHY,NHY,RDA,NGQ,NGQ,NGQ,NGQ,NGQ,NGQ,NGQ,NGQ,NGQ,NGQ,NGQ,NGQ,NGQ,NGQ,NGQ,NGQ,NGQ,NGQ,NGQ,NGQ,NGQ"
21,23.128532,72.592674,1582,Sardar Patel Ring Road;SP Ring Road,"Sardar Patel Ring Road, Gandhinagar, Gandhinagar District, Gujarat, 382421",Tragad Toll Plaza,,Gujarat;GJ,RDA,15,['cash'],270463361,0,8478.9,182,JVKGJ7,97671.4,barrier,"RDA,RDA,NGQ,NGQ,NGQ,NGQ,NGQ,NGQ,NGQ,NGQ,NGQ,NGQ,NGQ,NHY,NHY,RDA,NGQ,NGQ,NGQ,NGQ,NGQ,NGQ,NGQ,NGQ,NGQ,NGQ,NGQ,NGQ,NGQ,NGQ,NGQ,NGQ,NGQ,NGQ,NGQ,NGQ,NGQ"
21,23.115423,72.642845,1685,Sardar Patel Ring Road;SP Ring Road,"Sardar Patel Ring Road, Gandhinagar, Gujarat, 382426",Bhaat Toll Plaza,,Gujarat;GJ,RDA,16,['cash'],270506139,0,8886.5,177,JVKE2Z,103133.6,barrier,"RDA,NGQ,NGQ,NGQ,NGQ,NGQ,NGQ,NGQ,NGQ,NGQ,NGQ,NGQ,NHY,NHY,RDA,NGQ,NGQ,NGQ,NGQ,NGQ,NGQ,NGQ,NGQ,NGQ,NGQ,NGQ,NGQ,NGQ,NGQ,NGQ,NGQ,NGQ,NGQ,NGQ,NGQ,NGQ"
21,23.096256,72.686405,1801,Ahmedabad Bypass;Sardar Patel Ring Road;SP Ring Road;NH 48,"Ahmedabad Bypass, Asarva, Ahmedabad District, Gujarat, 382330",Ranasan Toll Plaza,NHAI,Gujarat;GJ,NGQ,30,['cash'],84941335,0,9333.2,181,JVKGG7,108676.7,barrier,"NGQ,NGQ,NGQ,NGQ,NGQ,NGQ,NGQ,NGQ,NGQ,NGQ,NGQ,NHY,NHY,RDA,NGQ,NGQ,NGQ,NGQ,NGQ,NGQ,NGQ,NGQ,NGQ,NGQ,NGQ,NGQ,NGQ,NGQ,NGQ,NGQ,NGQ,NGQ,NGQ,NGQ,NGQ"
21,22.983773,72.663833,2023,Ahmedabad Bypass;Sardar Patel Ring Road;SP Ring Road;NH 48,"Ahmedabad Bypass, Vatva, Ahmedabad District, Gujarat, 382449",Ramol Toll Plaza,NHAI,Gujarat;GJ,NGQ,30,['cash'],84941332,0,10617.2,180,JVKFD7,121631,barrier,"NGQ,NGQ,NGQ,NGQ,NGQ,NGQ,NGQ,NGQ,NGQ,NGQ,NHY,NHY,RDA,NGQ,NGQ,NGQ,NGQ,NGQ,NGQ,NGQ,NGQ,NGQ,NGQ,NGQ,NGQ,NGQ,NGQ,NGQ,NGQ,NGQ,NGQ,NGQ,NGQ,NGQ"
21,22.970032,72.662089,2053,NE 1,"Ramol, Vatva, Ahmedabad District;Ahmadabad District, Gujarat, 382449",Ahmedabad Ring Road Entry Toll Plaza,NHAI,Gujarat;GJ,NGQ,135,['cash'],84941348,0,10811.9,390523106,JVKHP2,123184.9,ticket,"NGQ,NGQ,NGQ,NGQ,NGQ,NGQ,NGQ,NGQ,NGQ,NHY,NHY,RDA,NGQ,NGQ,NGQ,NGQ,NGQ,NGQ,NGQ,NGQ,NGQ,NGQ,NGQ,NGQ,NGQ,NGQ,NGQ,NGQ,NGQ,NGQ,NGQ,NGQ,NGQ"
21,22.413804,73.149435,3116,Ahmedabad Vadodara Expressway;Mahatma Gandhi Expressway;NE 1,"Ahmedabad Vadodara Expressway, Vadodara, Vadodara District, Gujarat, 391745",Vadodara Main Exit Toll Plaza,NHAI,Gujarat;GJ,NGQ,,,263939977,0,14800.7,173,JVKLK4,205350.1,ticket,"NGQ,NGQ,NGQ,NGQ,NGQ,NGQ,NGQ,NGQ,NHY,NHY,RDA,NGQ,NGQ,NGQ,NGQ,NGQ,NGQ,NGQ,NGQ,NGQ,NGQ,NGQ,NGQ,NGQ,NGQ,NGQ,NGQ,NGQ,NGQ,NGQ,NGQ,NGQ"
21,22.014817,73.115347,4044,NH 48,"NH 48, Karjan, Vadodara District, Gujarat, 391244",Bharthana Karjan Toll Plaza,NHAI,Gujarat;GJ,NGQ,105,['cash'],84941320,0,19139.8,166,JVKK68,262005.1,barrier,"NGQ,NGQ,NGQ,NGQ,NGQ,NGQ,NGQ,NHY,NHY,RDA,NGQ,NGQ,NGQ,NGQ,NGQ,NGQ,NGQ,NGQ,NGQ,NGQ,NGQ,NGQ,NGQ,NGQ,NGQ,NGQ,NGQ,NGQ,NGQ,NGQ,NGQ"
21,21.702284,73.061148,4599,NH 48,"NH 48, Anklesvar, Bharuch District, Gujarat, 393010",Mandava Toll Plaza,NHAI,Gujarat;GJ,NGQ,30,['cash'],286477099,9,21675.5,871,JW34AF,300054.3,barrier,"NGQ,NGQ,NGQ,NGQ,NGQ,NGQ,NHY,NHY,RDA,NGQ,NGQ,NGQ,NGQ,NGQ,NGQ,NGQ,NGQ,NGQ,NGQ,NGQ,NGQ,NGQ,NGQ,NGQ,NGQ,NGQ,NGQ,NGQ,NGQ,NGQ"
21,21.303037,72.954261,5357,NH 48,"NH 48, Kamrej, Surat District, Gujarat, 394150",Choryasi Toll Plaza,NHAI,Gujarat;GJ,NGQ,80,['cash'],271984627,7,26478.7,176,JVIMZR,349959.2,barrier,"NGQ,NGQ,NGQ,NGQ,NGQ,NHY,NHY,RDA,NGQ,NGQ,NGQ,NGQ,NGQ,NGQ,NGQ,NGQ,NGQ,NGQ,NGQ,NGQ,NGQ,NGQ,NGQ,NGQ,NGQ,NGQ,NGQ,NGQ,NGQ"
21,20.885734,73.052202,6271,NH 48,"NH 48, Navsari, Navsari District, Gujarat, 396433",Boriach Toll Plaza,NHAI,Gujarat;GJ,NGQ,65,['cash'],276893301,0,29690.1,344,JVINE4,402909.6,barrier,"NGQ,NGQ,NGQ,NGQ,NHY,NHY,RDA,NGQ,NGQ,NGQ,NGQ,NGQ,NGQ,NGQ,NGQ,NGQ,NGQ,NGQ,NGQ,NGQ,NGQ,NGQ,NGQ,NGQ,NGQ,NGQ,NGQ,NGQ"
21,20.434939,72.917265,7354,NH 48,"NH 48, Pardi, Valsad District, Gujarat, 396185",Bhagwada Toll Plaza,NHAI,Gujarat;GJ,NGQ,75,['cash'],276891265,6,33057.6,169,JVISY2,461979,barrier,"NGQ,NGQ,NGQ,NHY,NHY,RDA,NGQ,NGQ,NGQ,NGQ,NGQ,NGQ,NGQ,NGQ,NGQ,NGQ,NGQ,NGQ,NGQ,NGQ,NGQ,NGQ,NGQ,NGQ,NGQ,NGQ,NGQ"
21,19.890544,72.942852,8434,NH 48,"NH 48, Dahanu, Palghar District, Maharashtra, 401607",Charoti Toll Plaza,NHAI,Maharashtra;MH,NGQ,65,['cash'],287814519,6,36887.4,124,JVMF10,526023.1,barrier,"NGQ,NGQ,NHY,NHY,RDA,NGQ,NGQ,NGQ,NGQ,NGQ,NGQ,NGQ,NGQ,NGQ,NGQ,NGQ,NGQ,NGQ,NGQ,NGQ,NGQ,NGQ,NGQ,NGQ,NGQ,NGQ"
21,19.520429,72.916971,9336,Western Expressway;NH 48,"NH 48, Vasai, Palghar District, Maharashtra, 401303",Khaniwade Toll Plaza,NHAI,Maharashtra;MH,NGQ,75,['cash'],263034477,5,39392.4,488,JVOGVK,572854.8,barrier,"NGQ,NHY,NHY,RDA,NGQ,NGQ,NGQ,NGQ,NGQ,NGQ,NGQ,NGQ,NGQ,NGQ,NGQ,NGQ,NGQ,NGQ,NGQ,NGQ,NGQ,NGQ,NGQ,NGQ,NGQ"
21,19.171644,72.968216,10410,Eastern Express Highway;AH 47;NH 48,"Eastern Express Highway, Durgawadi, Mulund East, Mumbai, Maharashtra, 400081",Mulund Toll Plaza,,Maharashtra;MH,NHY,40,['cash'],290132385,0,44885.3,390523552,TY69M8,623039,barrier,"NHY,NHY,RDA,NGQ,NGQ,NGQ,NGQ,NGQ,NGQ,NGQ,NGQ,NGQ,NGQ,NGQ,NGQ,NGQ,NGQ,NGQ,NGQ,NGQ,NGQ,NGQ,NGQ,NGQ"
21,19.169114,72.966836,10421,Eastern Express Highway;AH 47;NH 48,"Eastern Express Highway, MHADA Colony, Mulund East, Mumbai, Maharashtra, 400081",Mulund Toll Plaza,,Maharashtra;MH,NHY,40,['cash'],87761593,5,44960.5,153,JVKRHB,623356.5,barrier,"NHY,RDA,NGQ,NGQ,NGQ,NGQ,NGQ,NGQ,NGQ,NGQ,NGQ,NGQ,NGQ,NGQ,NGQ,NGQ,NGQ,NGQ,NGQ,NGQ,NGQ,NGQ,NGQ"
21,19.153552,72.965731,10466,Mulund Airoli Road,"Mulund Airoli Road, Mulund East, Mumbai, Maharashtra, 400081",Airoli Toll Plaza,,Maharashtra;MH,RDA,40,['cash'],290677755,6,45279.6,143,JVL87G,626129.3,barrier,"RDA,NGQ,NGQ,NGQ,NGQ,NGQ,NGQ,NGQ,NGQ,NGQ,NGQ,NGQ,NGQ,NGQ,NGQ,NGQ,NGQ,NGQ,NGQ,NGQ,NGQ,NGQ"
21,19.02974,73.089757,10961,Sion Panvel Expressway;Yashwantrao Chavan Expressway;AH 47,"Sion Panvel Expressway, Navi Mumbai, Maharashtra, 410209",Kharghar Toll Plaza,"MAHAPWD, MSRDC",Maharashtra;MH,NGQ,,,263883493,0,48086.7,670,JVOL8Q,651084.5,barrier,"NGQ,NGQ,NGQ,NGQ,NGQ,NGQ,NGQ,NGQ,NGQ,NGQ,NGQ,NGQ,NGQ,NGQ,NGQ,NGQ,NGQ,NGQ,NGQ,NGQ,NGQ"
21,18.801147,73.285488,11433,Mumbai Pune Expressway;Yashwantrao Chavan Expressway;AH 47,"Khalapur, Raigad District;Raigarh District, Maharashtra, 410202",Khalapur Toll Plaza,MSRDC,Maharashtra;MH,NGQ,320,['cash'],284207224,0,49658.8,672,JVOIR1,685493.2,ticket,"NGQ,NGQ,NGQ,NGQ,NGQ,NGQ,NGQ,NGQ,NGQ,NGQ,NGQ,NGQ,NGQ,NGQ,NGQ,NGQ,NGQ,NGQ,NGQ,NGQ"
21,18.713984,73.645839,12326,Mumbai Pune Expressway;Yashwantrao Chavan Expressway;AH 47,"Mumbai Pune Expressway, Mawal, Pune District, Maharashtra, 410506",Talegaon Toll Plaza,MSRDC,Maharashtra;MH,NGQ,,,284207229,9,52440.2,673,JVOHCK,735907.3,ticket,"NGQ,NGQ,NGQ,NGQ,NGQ,NGQ,NGQ,NGQ,NGQ,NGQ,NGQ,NGQ,NGQ,NGQ,NGQ,NGQ,NGQ,NGQ,NGQ"
21,18.327463,73.852182,13267,Mumbai Bangalore Highway;PB Road;Pune Satara Road;AH 47;NH 48,"Mumbai Bangalore Highway, Haveli, Pune District, Maharashtra, 412205",Khedshivapur Toll Plaza,NHAI,Maharashtra;MH,NGQ,115,['cash'],266315117,10,56081.9,110,JVMEDG,790848.9,barrier,"NGQ,NGQ,NGQ,NGQ,NGQ,NGQ,NGQ,NGQ,NGQ,NGQ,NGQ,NGQ,NGQ,NGQ,NGQ,NGQ,NGQ,NGQ"
21,17.809281,73.972119,14642,Mumbai Bangalore Highway;PB Road;Pune Satara Road;AH 47;NH 48,"Mumbai Bangalore Highway, Jaoli, Satara District, Maharashtra, 415020",Anewadi Toll Plaza,NHAI,Maharashtra;MH,NGQ,80,['cash'],266314770,4,60331.1,776,JVMEQJ,860343,barrier,"NGQ,NGQ,NGQ,NGQ,NGQ,NGQ,NGQ,NGQ,NGQ,NGQ,NGQ,NGQ,NGQ,NGQ,NGQ,NGQ,NGQ"
21,17.365772,74.12299,15458,Mumbai Bangalore Highway;PB Road;AH 47;NH 48,"Mumbai Bangalore Highway, Karad, Satara District, Maharashtra, 415109",Tasawade Toll Plaza,NHAI,Maharashtra;MH,NGQ,75,['cash'],268038022,4,63840,129,JVME7V,914486.2,barrier,"NGQ,NGQ,NGQ,NGQ,NGQ,NGQ,NGQ,NGQ,NGQ,NGQ,NGQ,NGQ,NGQ,NGQ,NGQ,NGQ"
21,16.876656,74.298373,16365,AH 47;NH 48,"AH 47, Hatkanangle, Kolhapur District, Maharashtra, 416112",Kini Toll Plaza,NHAI,Maharashtra;MH,NGQ,70,['cash'],87681819,4,68790.2,128,JVMDQC,973846.4,barrier,"NGQ,NGQ,NGQ,NGQ,NGQ,NGQ,NGQ,NGQ,NGQ,NGQ,NGQ,NGQ,NGQ,NGQ,NGQ"
21,16.542212,74.318342,17073,AH 47;NH 48,"AH 47, Nippani, Belagavi District, Karnataka, 591229",Kognoli Toll Plaza,NHAI,Karnataka;KA,NGQ,60,['cash'],270558403,5,71445.3,52,JVQ7SG,1013745.6,barrier,"NGQ,NGQ,NGQ,NGQ,NGQ,NGQ,NGQ,NGQ,NGQ,NGQ,NGQ,NGQ,NGQ,NGQ"
21,16.143369,74.517065,17910,AH 47;NH 48,"AH 47, Hukeri, Belagavi District, Karnataka, 591243",Hattargi Toll Plaza,NHAI,Karnataka;KA,NGQ,25,['cash'],86226275,5,75534.7,50,JVQ6EU,1067265.9,barrier,"NGQ,NGQ,NGQ,NGQ,NGQ,NGQ,NGQ,NGQ,NGQ,NGQ,NGQ,NGQ,NGQ"
21,15.763099,74.647903,18740,AH 47;NH 48,"AH 47, Belgaum, Belagavi District, Karnataka, 591109",Hirebagewadi Toll Plaza,NHAI,Karnataka;KA,NGQ,115,['cash'],86176778,5,79580.2,48,JVPXJ2,1119463.8,barrier,"NGQ,NGQ,NGQ,NGQ,NGQ,NGQ,NGQ,NGQ,NGQ,NGQ,NGQ,NGQ"
21,15.488747,74.969933,19482,Hubli Bypass;AH 47;NH 48,"Hubli Bypass, Dharwad, Dharwad District, Karnataka, 580005",Narendra Toll Plaza,NHAI,Karnataka;KA,NGQ,45,['cash'],86176776,3,83122.3,390500026,JVQ9AM,1169461,barrier,"NGQ,NGQ,NGQ,NGQ,NGQ,NGQ,NGQ,NGQ,NGQ,NGQ,NGQ"
21,15.318736,75.139827,19915,Hubli Bypass;AH 47;NH 48,"Hubli Bypass, Hubli Urban, Dharwad District, Karnataka, 580024",Gabbur Toll Plaza,NHAI,Karnataka;KA,NGQ,45,['cash'],283752556,4,85346.3,390522192,5V2VE1,1198927.2,barrier,"NGQ,NGQ,NGQ,NGQ,NGQ,NGQ,NGQ,NGQ,NGQ,NGQ"
21,14.910155,75.27978,20680,AH 47;NH 48,"AH 47, Shiggaon, Haveri District, Karnataka, 581202",Bankapur Toll Plaza,NHAI,Karnataka;KA,NGQ,55,['cash'],94029755,4,88480.1,327,JVQLQB,1249993,barrier,"NGQ,NGQ,NGQ,NGQ,NGQ,NGQ,NGQ,NGQ,NGQ"
21,14.556881,75.72816,21672,AH 47;NH 48,"AH 47, Ranibennur, Haveri District, Karnataka, 581145",Chalageri Toll Plaza,NHAI,Karnataka;KA,NGQ,140,['cash'],94029534,6,92644.5,336,JVQLHG,1315243.8,barrier,"NGQ,NGQ,NGQ,NGQ,NGQ,NGQ,NGQ,NGQ"
21,14.375712,76.106674,22363,AH 47;NH 48,"AH 47, Davanagere, Davanagere District, Karnataka, 577556",Hebbalu Toll Plaza,NHAI,Karnataka;KA,NGQ,125,['cash'],266306304,6,95441,328,JVQLGT,1363738.4,barrier,"NGQ,NGQ,NGQ,NGQ,NGQ,NGQ,NGQ"
21,14.053986,76.560432,23242,AH 47;NH 48,"AH 47, Hiriyur, Chitradurga District, Karnataka, 577558",Guilalu Toll Plaza,NHAI,Karnataka;KA,NGQ,80,['cash'],292610151,6,99565.5,325,JVQ31S,1430286.9,barrier,"NGQ,NGQ,NGQ,NGQ,NGQ,NGQ"
21,13.612212,76.95442,24209,AH 47;NH 48,"AH 47, Sira, Tumakuru District, Karnataka, 572125",Karjeevanhalli Toll Plaza,NHAI,Karnataka;KA,NGQ,100,['cash'],85824212,5,104424.3,54,JVQOHC,1499038.4,barrier,"NGQ,NGQ,NGQ,NGQ,NGQ"
21,13.302148,77.16197,24815,BH Road;AH 47;NH 48,"BH Road, Tumakuru, Tumakuru District, Karnataka, 572104",Kyathsandra Toll Plaza,NHAI,Karnataka;KA,NGQ,25,['cash'],85824174,5,107057,44,JVQ2CJ,1541250.9,barrier,"NGQ,NGQ,NGQ,NGQ"
21,13.11477,77.374705,25341,Tumkur Road;MBT Road;AH 47;NH 48,"Tumkur Road, Nelamangala, Bengaluru Rural District, Karnataka, 562123",Kulumepalya Nelamangla Toll Plaza,NHAI,Karnataka;KA,NGQ,25,['cash'],86090331,5,109752.6,65,JVPZR9,1572714,barrier,"NGQ,NGQ,NGQ"
21,13.090821,77.400064,25405,Nelamangala Bypass;Tumkur Road;MBT Road;AH 47;NH 48,"Nelamangala Bypass, Sadashiva Nagar, Nelamangala, Karnataka, 562123",Nelamangla Toll Plaza,NHAI,Karnataka;KA,NGQ,20,['cash'],86090375,0,110113.9,390522661,JVZOSH,1576712.4,barrier,"NGQ,NGQ"
21,13.193642,77.64968,26097,Bangalore Bellary Road;Bangalore Hyderabad Highway;International Airport Road;AH 43;NH 44,"Bangalore Bellary Road, Navarathna Agrahara, Bengaluru, Karnataka, 562157",Navayuga Devanahalli Toll Plaza,NHAI,Karnataka;KA,NGQ,110,['cash'],271149899,0,113606.7,426,JVPKPB,1618584.8,barrier,NGQ
22,24.24139,72.462676,2007,Abu Road;NH 27,"Abu Road, Palanpur, Banaskantha District, Gujarat, 385001",Khemana Toll Plaza,NHAI,Gujarat;GJ,NGQ,75,['cash'],85062948,6,9181.3,201,JVI7ZO,116959.6,barrier,"NGQ,NGQ,NHY,NHY,NHY,NHY,NHY,NHY,NGQ,NGQ,NHY,NHY,NHY,NHY,NHY,NHY,RDA,RDA,RDA,RDA,RDA,NHY,NHY,NHY,NHY,NGQ,NGQ,NGQ,NGQ,NHY,NHY"
22,24.633628,72.90704,3089,NH 27,"NH 27, Pindwara, Sirohi District, Rajasthan, 307023",Undavariya Sirohi Toll Plaza,NHAI,Rajasthan;RJ,NGQ,45,['cash'],267426677,0,13654,430,JV3PAO,184960.9,barrier,"NGQ,NHY,NHY,NHY,NHY,NHY,NHY,NGQ,NGQ,NHY,NHY,NHY,NHY,NHY,NHY,RDA,RDA,RDA,RDA,RDA,NHY,NHY,NHY,NHY,NGQ,NGQ,NGQ,NGQ,NHY,NHY"
22,25.033655,72.943409,4149,NH 62,"NH 62, Sheoganj, Sirohi District, Rajasthan, 307043",Uthamam Toll Plaza,NHAI,Rajasthan;RJ,NHY,140,['cash'],104086920,0,17401.9,694,JV689Z,248426.5,barrier,"NHY,NHY,NHY,NHY,NHY,NHY,NGQ,NGQ,NHY,NHY,NHY,NHY,NHY,NHY,RDA,RDA,RDA,RDA,RDA,NHY,NHY,NHY,NHY,NGQ,NGQ,NGQ,NGQ,NHY,NHY"
22,25.371273,73.201351,4833,NH 62,"NH 62, Sumerpur, Pali District, Rajasthan, 306708",Birami Toll Plaza,NHAI,Rajasthan;RJ,NHY,105,['cash'],94112216,5,20480,548,JV3VG7,296748.6,barrier,"NHY,NHY,NHY,NHY,NHY,NGQ,NGQ,NHY,NHY,NHY,NHY,NHY,NHY,RDA,RDA,RDA,RDA,RDA,NHY,NHY,NHY,NHY,NGQ,NGQ,NGQ,NGQ,NHY,NHY"
22,25.829855,73.459867,5676,NH 162,"NH 162, Pali, Pali District, Rajasthan, 306401",Indranagar Toll Plaza,NHAI,Rajasthan;RJ,NHY,85,['cash'],89279959,0,24282.2,434,JV3JBH,356989.7,barrier,"NHY,NHY,NHY,NHY,NGQ,NGQ,NHY,NHY,NHY,NHY,NHY,NHY,RDA,RDA,RDA,RDA,RDA,NHY,NHY,NHY,NHY,NGQ,NGQ,NGQ,NGQ,NHY,NHY"
22,26.063731,74.059434,6630,NH 162,"NH 162, Raipur, Beawar District, Rajasthan, 306304",Raipur Toll Plaza,NHAI,Rajasthan;RJ,NHY,95,['cash'],286960153,0,28811.6,435,JV3IDE,423392.1,barrier,"NHY,NHY,NHY,NGQ,NGQ,NHY,NHY,NHY,NHY,NHY,NHY,RDA,RDA,RDA,RDA,RDA,NHY,NHY,NHY,NHY,NGQ,NGQ,NGQ,NGQ,NHY,NHY"
22,26.158774,74.37138,7411,Rani Sagar Industrial Area Road;NH 58,"Rani Sagar Industrial Area Road, Rani Sagar RIICO, Rajasthan, 305202",Pipalaz Toll Plaza,NHAI,Rajasthan;RJ,NHY,65,['cash'],286960175,8,31479.3,433,JV3IG7,465169.4,barrier,"NHY,NHY,NGQ,NGQ,NHY,NHY,NHY,NHY,NHY,NHY,RDA,RDA,RDA,RDA,RDA,NHY,NHY,NHY,NHY,NGQ,NGQ,NGQ,NGQ,NHY,NHY"
22,26.551835,74.781278,8373,Ajmer Road;NH 448,"Ajmer Road, Ajmer, Ajmer District, Rajasthan, 305023",Gegal Toll Plaza,NHAI,Rajasthan;RJ,NHY,65,['cash'],286960186,6,35465.3,342,JV4ZVC,529494,barrier,"NHY,NGQ,NGQ,NHY,NHY,NHY,NHY,NHY,NHY,RDA,RDA,RDA,RDA,RDA,NHY,NHY,NHY,NHY,NGQ,NGQ,NGQ,NGQ,NHY,NHY"
22,26.595659,74.939247,8696,Jaipur Kishangarh Expressway;NH 48,"NH 8, Ajmer Road, Kishangarh, Ajmer District, Rajasthan, 305816",Kishangarh Badgaon Toll Plaza,NHAI,Rajasthan;RJ,NGQ,25,['cash'],286960184,6,36981.5,26,JV4V96,547909.5,barrier,"NGQ,NGQ,NHY,NHY,NHY,NHY,NHY,NHY,RDA,RDA,RDA,RDA,RDA,NHY,NHY,NHY,NHY,NGQ,NGQ,NGQ,NGQ,NHY,NHY"
22,26.843488,75.61549,9704,Jaipur Kishangarh Expressway;Delhi Ajmer Expressway;Ajmer Road;NH 48,"NH 8, Jaipur, Rajasthan, 302042",Thikariya Jaipur Toll Plaza,NHAI,Rajasthan;RJ,NGQ,80,['cash'],274509596,6,42450.2,23,JW1PID,621906.1,barrier,"NGQ,NHY,NHY,NHY,NHY,NHY,NHY,RDA,RDA,RDA,RDA,RDA,NHY,NHY,NHY,NHY,NGQ,NGQ,NGQ,NGQ,NHY,NHY"
22,26.899413,75.847511,10299,Ghat Ki Guni Tunnel Road;NH 21,"Ghat Ki Guni Tunnel Road, Ghat Ki Guni, Jaipur, Rajasthan, 302004",Rohan Rajdeep Toll Plaza,NHAI,Rajasthan;RJ,NHY,80,['cash'],286960142,0,45411.5,444,JV4OEE,650468,barrier,"NHY,NHY,NHY,NHY,NHY,NHY,RDA,RDA,RDA,RDA,RDA,NHY,NHY,NHY,NHY,NGQ,NGQ,NGQ,NGQ,NHY,NHY"
22,26.859078,76.104045,10727,Agra Road;Bikaner Agra Road;NH 21,"Agra Road, Bassi, Jaipur Rural District, Rajasthan, 303301",Rajadhok Toll Plaza,NHAI,Rajasthan;RJ,NHY,75,['cash'],286960164,5,47570.5,440,JV4FVE,677131.2,barrier,"NHY,NHY,NHY,NHY,NHY,RDA,RDA,RDA,RDA,RDA,NHY,NHY,NHY,NHY,NGQ,NGQ,NGQ,NGQ,NHY,NHY"
22,26.94455,76.557521,11462,Agra Road;Bikaner Agra Road;NH 21,"NH 21, Sikrai, Dausa District, Rajasthan, 303304",Sikandra Toll Plaza,NHAI,Rajasthan;RJ,NHY,80,['cash'],101220289,4,50164.9,38,JV5I82,725218.5,barrier,"NHY,NHY,NHY,NHY,RDA,RDA,RDA,RDA,RDA,NHY,NHY,NHY,NHY,NGQ,NGQ,NGQ,NGQ,NHY,NHY"
22,27.101347,77.090898,12296,Agra Road;Bikaner Agra Road;NH 21,"Agra Road, Bhusawar, Bharatpur District, Rajasthan, 321407",Amoli Toll Plaza,NHAI,Rajasthan;RJ,NHY,50,['cash'],89128174,5,53394.7,39,JVYQ16,782899.3,barrier,"NHY,NHY,NHY,RDA,RDA,RDA,RDA,RDA,NHY,NHY,NHY,NHY,NGQ,NGQ,NGQ,NGQ,NHY,NHY"
22,27.178544,77.416814,12752,Agra Road;Bikaner Agra Road;NH 21,"Agra Road, Bharatpur, Bharatpur District, Rajasthan, 321303",Ludhawai Toll Plaza,NHAI,Rajasthan;RJ,NHY,25,['cash'],89128252,5,55176,40,JV48TB,816848.8,barrier,"NHY,NHY,RDA,RDA,RDA,RDA,RDA,NHY,NHY,NHY,NHY,NGQ,NGQ,NGQ,NGQ,NHY,NHY"
22,27.114933,77.715898,13312,Agra Road;Bikaner Agra Road;NH 21,"Agra Road, Kiraoli, Agra District, Uttar Pradesh, 283110",Korai Toll Plaza,NHAI,Uttar Pradesh;UP,NHY,60,['cash'],91510997,0,57772.3,300,JV8FCR,851295,barrier,"NHY,RDA,RDA,RDA,RDA,RDA,NHY,NHY,NHY,NHY,NGQ,NGQ,NGQ,NGQ,NHY,NHY"
22,27.202382,78.114804,14248,Inner Ring Road,"Inner Ring Road, Etmadpur, Agra District, Uttar Pradesh, 282006",Rahankalan Toll Plaza,,Uttar Pradesh;UP,RDA,40,['cash'],276225449,0,61941.4,650,JVABNP,901732.6,barrier,"RDA,RDA,RDA,RDA,RDA,NHY,NHY,NHY,NHY,NGQ,NGQ,NGQ,NGQ,NHY,NHY"
22,27.053705,78.277473,14622,Agra Lucknow Expressway;Lucknow Expressway,"Agra Lucknow Expressway, Fatehabad, Agra District, Uttar Pradesh, 283111",Agra Main Entry Toll Plaza,UPEIDA,Uttar Pradesh;UP,RDA,650,['cash'],265609136,0,63418.1,762,JVB2WU,927187.4,ticket,"RDA,RDA,RDA,RDA,NHY,NHY,NHY,NHY,NGQ,NGQ,NGQ,NGQ,NHY,NHY"
22,26.845584,80.710664,18230,Agra Lucknow Expressway;Lucknow Expressway,"Agra Lucknow Expressway, Sarojani Nagar, Lucknow District, Uttar Pradesh, 226101",Lucknow Main Exit Toll Plaza,UPEIDA,Uttar Pradesh;UP,RDA,,,265609113,0,73720.3,761,JVAXCF,1196778,ticket,"RDA,RDA,RDA,NHY,NHY,NHY,NHY,NGQ,NGQ,NGQ,NGQ,NHY,NHY"
22,26.719725,81.13019,19279,Purvanchal Expressway,"Purvanchal Expressway, Mohanlalganj, Lucknow District, Uttar Pradesh, 226501",Lucknow Main Entry Toll Plaza,UPEIDA,Uttar Pradesh;UP,RDA,785,['cash'],96885444,0,77382,390522153,XRCZDI,1250615,ticket,"RDA,RDA,NHY,NHY,NHY,NHY,NGQ,NGQ,NGQ,NGQ,NHY,NHY"
22,25.63956,83.840729,24155,Purvanchal Expressway,"Purvanchal Expressway, Mohammadabad, Ghazipur District, Uttar Pradesh, 233233",Ghazipur Main Exit Toll Plaza,UPEIDA,Uttar Pradesh;UP,RDA,,,282995916,0,89986.2,390522159,XRD41D,1576305.4,ticket,"RDA,NHY,NHY,NHY,NHY,NGQ,NGQ,NGQ,NGQ,NHY,NHY"
22,25.58065,84.060584,24716,Arrah Buxar Road;NH 922,"Arrah Buxar Road, Marautiya, Buxar, Buxar District, Bihar, 802116",Dalsagar Toll Plaza,NHAI,Bihar;BR,NHY,95,['cash'],292677253,0,92237.5,390523614,GFRRTZ,1608909.5,barrier,"NHY,NHY,NHY,NHY,NGQ,NGQ,NGQ,NGQ,NHY,NHY"
22,25.580234,84.769105,25815,NH 922,"NH 922, Koilwar, Bhojpur District, Bihar, 802160",Kulhariya Toll Plaza,NHAI,Bihar;BR,NHY,100,['cash'],293161911,0,96829,390523621,OLEHBS,1684771.2,barrier,"NHY,NHY,NHY,NGQ,NGQ,NGQ,NGQ,NHY,NHY"
22,25.924094,84.967925,26680,NH 722,"NH 722, Parsa, Saran District, Bihar, 841460",Sonho Toll Plaza,NHAI,Bihar;BR,NHY,40,['cash'],271807077,0,101098.7,390522733,JVD0ZL,1737831.6,barrier,"NHY,NHY,NGQ,NGQ,NGQ,NGQ,NHY,NHY"
22,26.055884,85.182686,27172,NH 722,"NH 722, Saraiya, Muzaffarpur District, Bihar, 843106",Pokhraira Toll Plaza,NHAI,Bihar;BR,NHY,30,['cash'],275452071,0,103061.1,390522734,XVT0J0,1766275.6,barrier,"NHY,NGQ,NGQ,NGQ,NGQ,NHY,NHY"
22,26.112725,85.564921,28019,NH 27,"NH 27, Gaighat, Muzaffarpur District, Bihar, 843118",Maithi Toll Plaza,NHAI,Bihar;BR,NGQ,140,['cash'],271794074,0,107175.8,503,JVCNBH,1816300.2,barrier,"NGQ,NGQ,NGQ,NGQ,NHY,NHY"
22,26.225174,86.150171,29078,NH 27,"NH 27, Manigachhi, Darbhanga District, Bihar, 847422",Raje Old Naraur Toll Plaza,NHAI,Bihar;BR,NGQ,135,['cash'],104081232,0,110658.5,688,JVCS86,1879024.2,barrier,"NGQ,NGQ,NGQ,NHY,NHY"
22,26.297833,86.632998,30005,NH 27,"NH 27, Kishanpur, Supaul District, Bihar, 852105",Asanpur Toll Plaza,NHAI,Bihar;BR,NGQ,105,['cash'],93681411,0,114162.4,502,JW26O6,1937608.2,barrier,"NGQ,NGQ,NHY,NHY"
22,26.152747,87.445216,31406,NH 27,"NH 27, Araria, Araria District, Bihar, 854311",Hariabara Toll Plaza,NHAI,Bihar;BR,NGQ,135,['cash'],93654472,0,120065.4,501,JW26LM,2032151.6,barrier,"NGQ,NHY,NHY"
22,26.15599,87.665547,31850,NH 327,"NH 327, Jokihat, Araria District, Bihar, 854329",ACC Bhatta Chowk Toll Plaza,NHAI,Bihar;BR,NHY,,,271794819,0,122622.6,390522536,JVCZBQ,2059337.8,barrier,"NHY,NHY"
22,26.318897,87.902654,32306,NH 327,"NH 327, Dighalbank, Kishanganj District, Bihar, 855101",Khaikhat Toll Plaza,NHAI,Bihar;BR,NHY,65,['cash'],271794804,0,125724.5,390522761,JVCZDE,2091732.2,barrier,NHY
23,23.00134,71.372781,1536,SH 7,"SH 7, Dhrangadhra, Surendranagar District, Gujarat, 363310",Soladi Toll Plaza,GSRDC,Gujarat;GJ,SHY,35,['cash'],92983512,0,8461.6,479,JVJ2ZQ,106578.3,barrier,"SHY,SHY,NGQ,NHY,NHY"
23,23.037149,70.928157,2166,Halvad Maliya Highway;SH 7,"Halvad Maliya Highway, Maliya, Morbi District, Gujarat, 363635",Aniyari Toll Plaza,GSRDC,Gujarat;GJ,SHY,55,['cash'],92983611,0,11063.8,480,JVJ9MT,153561.4,barrier,"SHY,NGQ,NHY,NHY"
23,23.233671,70.689452,2649,NH 27,"NH 27, Bhachau, Kachchh District, Gujarat, 370150",Surajbari Toll Plaza,NHAI,Gujarat;GJ,NGQ,90,['cash'],85063398,4,13581.5,203,JVICGD,189049,barrier,"NGQ,NHY,NHY"
23,23.308195,70.490539,2976,NH 41,"NH 41, Bhachau, Kachchh District, Gujarat, 370150",Samakhiyali Toll Plaza,NHAI,Gujarat;GJ,NHY,80,['cash'],271122500,0,14996.9,482,JVJUAW,211525.7,barrier,"NHY,NHY"
23,22.93505,69.802464,4382,Mundra Port Road;NH 41,"Mundra Port Road, Mundra, Kachchh District, Gujarat, 370410",Mokha Toll Plaza,NHAI,Gujarat;GJ,NHY,130,['cash'],271124012,0,21600.2,858,JVIU3J,304129.3,barrier,NHY
24,24.24139,72.462676,2007,Abu Road;NH 27,"Abu Road, Palanpur, Banaskantha District, Gujarat, 385001",Khemana Toll Plaza,NHAI,Gujarat;GJ,NGQ,75,['cash'],85062948,6,9181.3,201,JVI7ZO,116959.6,barrier,"NGQ,NGQ,NGQ,NGQ,NGQ,NGQ,NGQ,NGQ,NGQ,NGQ,NGQ"
24,24.633628,72.90704,3089,NH 27,"NH 27, Pindwara, Sirohi District, Rajasthan, 307023",Undavariya Sirohi Toll Plaza,NHAI,Rajasthan;RJ,NGQ,45,['cash'],267426677,0,13654,430,JV3PAO,184960.9,barrier,"NGQ,NGQ,NGQ,NGQ,NGQ,NGQ,NGQ,NGQ,NGQ,NGQ"
24,24.712337,73.093821,3641,NH 27,"NH 27, Pindwara, Sirohi District, Rajasthan, 307022",Malera Toll Plaza,NHAI,Rajasthan;RJ,NGQ,115,['cash'],290676285,5,15763.4,312,JV47L6,217568.9,barrier,"NGQ,NGQ,NGQ,NGQ,NGQ,NGQ,NGQ,NGQ,NGQ"
24,24.766046,73.524118,4645,NH 27,"NH 27, Gogunda, Udaipur District, Rajasthan, 313705",Gogunda Jaswantgarh Toll Plaza,NHAI,Rajasthan;RJ,NGQ,85,['cash'],283578393,5,20093.5,34,JVYPCF,270570.7,barrier,"NGQ,NGQ,NGQ,NGQ,NGQ,NGQ,NGQ,NGQ"
24,24.613792,74.231795,6180,NH 27,"NH 27, Bhindar, Udaipur District, Rajasthan, 313603",Narayanpura Toll Plaza,NHAI,Rajasthan;RJ,NGQ,140,['cash'],277166431,6,25260,341,JV6BMO,357903.9,barrier,"NGQ,NGQ,NGQ,NGQ,NGQ,NGQ,NGQ"
24,25.033974,74.817506,7550,NH 27,"NH 27, Bassi, Chittorgarh District, Rajasthan, 312022",Bassi Toll Plaza,NHAI,Rajasthan;RJ,NGQ,90,['cash'],94107017,0,30633.8,431,JV3UZS,443923.3,barrier,"NGQ,NGQ,NGQ,NGQ,NGQ,NGQ"
24,25.091153,75.199044,8510,NH 27,"NH 27, Beejoliya, Bhilwara District, Rajasthan, 311602",Aroli Toll Plaza,NHAI,Rajasthan;RJ,NGQ,80,['cash'],94105684,3,34270.5,35,JV3UA2,500674.5,barrier,"NGQ,NGQ,NGQ,NGQ,NGQ"
24,25.072635,75.598474,9262,NH 27,"NH 27, Talera, Bundi District, Rajasthan, 323022",Dhaneshwar Toll Plaza,NHAI,Rajasthan;RJ,NGQ,75,['cash'],267417943,4,37154.6,43,JV3UKR,547249.8,barrier,"NGQ,NGQ,NGQ,NGQ"
24,25.156171,75.776682,9600,Kota Bypass;NH 27,"Kota Bypass, Ladpura, Kota District, Rajasthan, 324010",Sakatpura Toll Plaza,NHAI,Rajasthan;RJ,NGQ,80,['cash'],271177957,0,38422.1,390522714,JV7W3K,569324.3,barrier,"NGQ,NGQ,NGQ"
24,25.170046,76.130595,10381,Kota Baran Road;NH 27,"Kota Baran Road, Digod, Kota District, Rajasthan, 325203",Simliya Toll Plaza,NHAI,Rajasthan;RJ,NGQ,85,['cash'],267417935,4,41327,443,JV3UBM,615697.4,barrier,"NGQ,NGQ"
24,25.121803,76.573032,11218,NH 27,"NH 27, Baran, Baran District, Rajasthan, 325205",Fatehpur Toll Plaza,NHAI,Rajasthan;RJ,NGQ,110,['cash'],89127614,4,44297.3,36,JVYRHB,667135.6,barrier,NGQ
25,13.270905,77.348028,152,Dabaspete Main Road;NH 648,"Dabaspete Main Road, Dodballapura, Bengaluru Rural District, Karnataka, 561204",Hulikunte Toll Plaza,,Karnataka;KA,NHY,,,293111396,0,910.6,390523740,WUBXDI,10242.1,barrier,"NHY,NHY,NHY"
25,13.698563,78.518519,3418,Kadapa Bangalore Road;NH 340,"NH 340, Mudivedu, Kurabalakota, Annamayya District, Andhra Pradesh, 517350",Mudivedu Toll Plaza,NHAI,Andhra Pradesh;AP,NHY,65,['cash'],291121475,0,14977.7,390523589,AM1VYT,184422.5,barrier,"NHY,NHY"
25,14.131113,78.756697,4633,Kurnool Chittoor Highway;Kadapa Rayachoty Road;NH 40,"Kurnool Chittoor Highway, Ramapuram, Annamayya District, Andhra Pradesh, 516270",Bandapalli Toll Plaza,NHAI,Andhra Pradesh;AP,NHY,55,['cash'],278931198,0,18694.3,390522758,2UCWBM,244687.4,barrier,NHY
26,12.962712,76.770352,1409,Mangalore Bangalore Highway;NH 75,"Mangalore Bangalore Highway, Nagamangala, Mandya District, Karnataka, 571418",Karbylu Bellur Cross Toll Plaza,NHAI,Karnataka;KA,NHY,50,['cash'],264064015,4,5090.1,321,JVQQ43,80646.5,barrier,"NHY,NHY,NHY"
26,12.213145,76.662975,3377,Mysore Nanjangud Road;NH 766,"Mysore Nanjangud Road, Mysuru, Mysuru District, Karnataka, 571311",KN Hundy Toll Plaza,NHAI,Karnataka;KA,NHY,55,['cash'],265751113,5,11568.3,737,JVQZ5B,179279.2,barrier,"NHY,NHY"
26,11.780016,76.614055,4432,Mysore Kollegal Highway;NH 766,"Mysore Kollegal Highway, Gundlupet, Chamarajanagar District, Karnataka, 571111",Kannegala Toll Plaza,NHAI,Karnataka;KA,NHY,30,['cash'],85807372,3,15547.2,390522765,JW3P55,235638.8,barrier,NHY
27,28.31113,76.895801,234,,"Panchgaon, Manesar, Haryana, 123413",Maneshar Entry Toll Plaza,HSIIDC,Haryana;HR,RDA,90,['cash'],271165725,0,1503.3,390522974,JV1WO3,10674.3,ticket,"RDA,RDA,NGQ,NGQ,NGQ,NGQ,NGQ,NGQ,NGQ,NGQ"
27,28.102508,77.30518,955,Western Peripheral Expressway;KMP Expressway,"Western Peripheral Expressway, Palwal, Palwal District, Haryana, 121102",Palwal Main Exit Toll Plaza,HSIIDC,Haryana;HR,RDA,,,94284800,0,4555.3,592,JV2DU9,59829,ticket,"RDA,NGQ,NGQ,NGQ,NGQ,NGQ,NGQ,NGQ,NGQ"
27,28.006937,77.332944,1239,AH 1;NH 44,"AH 1, Hodal, Palwal District, Haryana, 121105",Srinagar Toll Plaza,NHAI,Haryana;HR,NGQ,120,['cash'],85393878,7,5588.8,390523497,JV1JP5,74253.6,barrier,"NGQ,NGQ,NGQ,NGQ,NGQ,NGQ,NGQ,NGQ"
27,27.855593,77.40289,1557,Agra Delhi Road;AH 1;NH 44,"Agra Delhi Road, Hodal, Palwal District, Haryana, 121106",Karman Toll Plaza,NHAI,Haryana;HR,NGQ,90,['cash'],283910209,0,6785.7,390522396,0005NJ,93157.3,barrier,"NGQ,NGQ,NGQ,NGQ,NGQ,NGQ,NGQ"
27,27.337248,77.737541,2742,Agra Delhi Road;AH 1;NH 44,"Agra Delhi Road, Mathura, Mathura District, Uttar Pradesh, 281122",Mahuvan Toll Plaza,NHAI,Uttar Pradesh;UP,NGQ,100,['cash'],91511006,0,11712.8,299,JV8GWV,164130.7,barrier,"NGQ,NGQ,NGQ,NGQ,NGQ,NGQ"
27,27.164211,77.815247,3193,Agra Bypass;AH 43;NH 44,"Agra Bypass, Kiraoli, Agra District, Uttar Pradesh, 283101",Raibha Toll Plaza,NHAI,Uttar Pradesh;UP,NGQ,80,['cash'],265930310,5,13028.9,736,JVATTI,187268.9,barrier,"NGQ,NGQ,NGQ,NGQ,NGQ"
27,26.931975,77.933444,3800,AH 43;NH 44,"AH 43, Kheragarh, Agra District, Uttar Pradesh, 283124",Jajau Toll Plaza,NHAI,Uttar Pradesh;UP,NGQ,95,['cash'],103949732,0,15572.1,669,JV9G7P,224816.7,barrier,"NGQ,NGQ,NGQ,NGQ"
27,26.468234,78.009484,4703,AB Road;Agra Bombay Road;AH 43;NH 44,"AB Road, Morena, Morena District, Madhya Pradesh, 476001",Choundha Toll Plaza,NHAI,Madhya Pradesh;MP,NGQ,85,['cash'],94149403,0,19826.7,596,JVGSBP,280489.5,barrier,"NGQ,NGQ,NGQ"
27,26.197511,78.240785,5584,Gwalior Bypass;Srinagar Kanyakumari Highway;AH 43;NH 44,"Gwalior Bypass, Gwalior, Madhya Pradesh, 474006",Gwalior Bypass Toll Plaza,NHAI,Madhya Pradesh;MP,NGQ,95,['cash'],92976473,0,23107.1,483,JVF89N,331630,barrier,"NGQ,NGQ"
27,25.616023,78.479114,7042,Srinagar Kanyakumari Highway;Gwalior Jhansi Road;AH 43;NH 44,"Srinagar Kanyakumari Highway, Datia Nagar, Datia District, Madhya Pradesh, 475661",Dagrai Toll Plaza,NHAI,Madhya Pradesh;MP,NGQ,140,['cash'],278676311,0,27620.3,390500037,6WQ4N7,407374.6,barrier,NGQ
28,28.31113,76.895801,234,,"Panchgaon, Manesar, Haryana, 123413",Maneshar Entry Toll Plaza,HSIIDC,Haryana;HR,RDA,90,['cash'],271165725,0,1503.3,390522974,JV1WO3,10674.3,ticket,"RDA,RDA,RDA,RDA,RDA,RDA,RDA,RDA,RDA,NHY,NHY,NHY,NHY,NHY"
28,28.102508,77.30518,955,Western Peripheral Expressway;KMP Expressway,"Western Peripheral Expressway, Palwal, Palwal District, Haryana, 121102",Palwal Main Exit Toll Plaza,HSIIDC,Haryana;HR,RDA,,,94284800,0,4555.3,592,JV2DU9,59829,ticket,"RDA,RDA,RDA,RDA,RDA,RDA,RDA,RDA,NHY,NHY,NHY,NHY,NHY"
28,27.660135,77.73333,2245,Yamuna Expressway;Taj Expressway,"Yamuna Expressway, Mat, Mathura District, Uttar Pradesh, 281202",Mathura Toll Plaza,YEIDA,Uttar Pradesh;UP,RDA,160,['cash'],265930289,0,9738.1,296,JVA0YN,145423.3,barrier,"RDA,RDA,RDA,RDA,RDA,RDA,RDA,NHY,NHY,NHY,NHY,NHY"
28,27.303456,78.004162,3018,Yamuna Expressway;Taj Expressway,"Yamuna Expressway, Etmadpur, Agra District, Uttar Pradesh, 283126",Agra Toll Plaza,YEIDA,Uttar Pradesh;UP,RDA,145,['cash'],284172719,0,11988.5,297,JV9QLC,200540.3,barrier,"RDA,RDA,RDA,RDA,RDA,RDA,NHY,NHY,NHY,NHY,NHY"
28,27.202382,78.114804,3282,Inner Ring Road,"Inner Ring Road, Etmadpur, Agra District, Uttar Pradesh, 282006",Rahankalan Toll Plaza,,Uttar Pradesh;UP,RDA,40,['cash'],276225449,0,12784.7,650,JVABNP,218313.8,barrier,"RDA,RDA,RDA,RDA,RDA,NHY,NHY,NHY,NHY,NHY"
28,27.053705,78.277473,3656,Agra Lucknow Expressway;Lucknow Expressway,"Agra Lucknow Expressway, Fatehabad, Agra District, Uttar Pradesh, 283111",Agra Main Entry Toll Plaza,UPEIDA,Uttar Pradesh;UP,RDA,,,265609136,0,14261.4,762,JVB2WU,243768.7,ticket,"RDA,RDA,RDA,RDA,NHY,NHY,NHY,NHY,NHY"
28,26.909396,79.326554,5148,Bundelkhand Expressway,"Bundelkhand Expressway, Takha, Etawah District, Uttar Pradesh, 206242",Kudrail Exit Toll Plaza,,Uttar Pradesh;UP,RDA,,,289430833,0,18642.9,390523486,TR4P2X,355739.1,ticket,"RDA,RDA,RDA,NHY,NHY,NHY,NHY,NHY"
28,26.848322,79.317265,5269,Bundelkhand Expressway,"Bundelkhand Expressway, Takha, Etawah District, Uttar Pradesh, 206242",Takha Etawah Main Entry Toll Plaza,UPEIDA,Uttar Pradesh;UP,RDA,610,['cash'],286902570,0,19130.4,390522383,G98UJZ,363856.9,ticket,"RDA,RDA,NHY,NHY,NHY,NHY,NHY"
28,25.251722,80.744924,8903,Bundelkhand Expressway,"Bundelkhand Expressway, Karwi, Chitrakoot District, Uttar Pradesh, 210204",Akabarpur Main Exit Toll Plaza,UPEIDA,Uttar Pradesh;UP,RDA,,,286900218,0,34645.8,390522384,G98UYI,646633.7,ticket,"RDA,NHY,NHY,NHY,NHY,NHY"
28,24.653714,80.786624,10607,Satna Chitrakoot Highway;NH 135BG,"Satna Chitrakoot Highway, Raghurajnagar Nagareey, Satna District, Madhya Pradesh, 485001",Khamha Toll Plaza,NHAI,Madhya Pradesh;MP,NHY,,,281821255,0,41321.1,390522654,PULTFN,735632.5,barrier,"NHY,NHY,NHY,NHY,NHY"
28,24.349305,80.778882,11376,Satna Maihar Road;NH 135BG,"Satna Maihar Road, Unchahara, Satna District, Madhya Pradesh, 485771",Ichoul Toll Plaza,MPRDC,Madhya Pradesh;MP,NHY,,,275457193,0,44833.4,390522551,XVTWHH,774718.3,barrier,"NHY,NHY,NHY,NHY"
28,24.122443,80.59937,12030,Katni Maihar Road;NH 30,"Katni Maihar Road, Maihar, Satna District, Madhya Pradesh, 485773",Kherwasani Toll Plaza,NHAI,Madhya Pradesh;MP,NHY,115,['cash'],275458831,4,47398.6,969,XVTPIW,808721.8,barrier,"NHY,NHY,NHY"
28,23.816887,80.510952,12859,Katni Umaria Road;NH 43,"Katni Umaria Road, Badwara, Katni District, Madhya Pradesh, 483501",Majhgawan Toll Plaza,NHAI,Madhya Pradesh;MP,NHY,65,['cash'],283806626,6,50770.4,390522819,5V3GWO,861144,barrier,"NHY,NHY"
28,23.434842,80.933313,14115,NH 43,"NH 43, Karkeli, Umaria District, Madhya Pradesh, 484661",Barhi Toll Plaza,,Madhya Pradesh;MP,NHY,,,286625465,0,55192,390522969,H18L6V,929197.7,barrier,NHY
29,28.31113,76.895801,234,,"Panchgaon, Manesar, Haryana, 123413",Maneshar Entry Toll Plaza,HSIIDC,Haryana;HR,RDA,90,['cash'],271165725,0,1503.3,390522974,JV1WO3,10674.3,ticket,"RDA,RDA,RDA,RDA,RDA,RDA,RDA,RDA,RDA,NHY,NHY,NHY,NHY,NHY"
29,28.102508,77.30518,955,Western Peripheral Expressway;KMP Expressway,"Western Peripheral Expressway, Palwal, Palwal District, Haryana, 121102",Palwal Main Exit Toll Plaza,HSIIDC,Haryana;HR,RDA,,,94284800,0,4555.3,592,JV2DU9,59829,ticket,"RDA,RDA,RDA,RDA,RDA,RDA,RDA,RDA,NHY,NHY,NHY,NHY,NHY"
29,27.660135,77.73333,2245,Yamuna Expressway;Taj Expressway,"Yamuna Expressway, Mat, Mathura District, Uttar Pradesh, 281202",Mathura Toll Plaza,YEIDA,Uttar Pradesh;UP,RDA,160,['cash'],265930289,0,9738.1,296,JVA0YN,145423.3,barrier,"RDA,RDA,RDA,RDA,RDA,RDA,RDA,NHY,NHY,NHY,NHY,NHY"
29,27.303456,78.004162,3018,Yamuna Expressway;Taj Expressway,"Yamuna Expressway, Etmadpur, Agra District, Uttar Pradesh, 283126",Agra Toll Plaza,YEIDA,Uttar Pradesh;UP,RDA,145,['cash'],284172719,0,11988.5,297,JV9QLC,200540.3,barrier,"RDA,RDA,RDA,RDA,RDA,RDA,NHY,NHY,NHY,NHY,NHY"
29,27.202382,78.114804,3282,Inner Ring Road,"Inner Ring Road, Etmadpur, Agra District, Uttar Pradesh, 282006",Rahankalan Toll Plaza,,Uttar Pradesh;UP,RDA,40,['cash'],276225449,0,12784.7,650,JVABNP,218313.8,barrier,"RDA,RDA,RDA,RDA,RDA,NHY,NHY,NHY,NHY,NHY"
29,27.053705,78.277473,3656,Agra Lucknow Expressway;Lucknow Expressway,"Agra Lucknow Expressway, Fatehabad, Agra District, Uttar Pradesh, 283111",Agra Main Entry Toll Plaza,UPEIDA,Uttar Pradesh;UP,RDA,,,265609136,0,14261.4,762,JVB2WU,243768.7,ticket,"RDA,RDA,RDA,RDA,NHY,NHY,NHY,NHY,NHY"
29,26.909396,79.326554,5148,Bundelkhand Expressway,"Bundelkhand Expressway, Takha, Etawah District, Uttar Pradesh, 206242",Kudrail Exit Toll Plaza,,Uttar Pradesh;UP,RDA,,,289430833,0,18642.9,390523486,TR4P2X,355739.1,ticket,"RDA,RDA,RDA,NHY,NHY,NHY,NHY,NHY"
29,26.848322,79.317265,5269,Bundelkhand Expressway,"Bundelkhand Expressway, Takha, Etawah District, Uttar Pradesh, 206242",Takha Etawah Main Entry Toll Plaza,UPEIDA,Uttar Pradesh;UP,RDA,610,['cash'],286902570,0,19130.4,390522383,G98UJZ,363856.9,ticket,"RDA,RDA,NHY,NHY,NHY,NHY,NHY"
29,25.251722,80.744924,8903,Bundelkhand Expressway,"Bundelkhand Expressway, Karwi, Chitrakoot District, Uttar Pradesh, 210204",Akabarpur Main Exit Toll Plaza,UPEIDA,Uttar Pradesh;UP,RDA,,,286900218,0,34645.8,390522384,G98UYI,646633.7,ticket,"RDA,NHY,NHY,NHY,NHY,NHY"
29,24.653714,80.786624,10607,Satna Chitrakoot Highway;NH 135BG,"Satna Chitrakoot Highway, Raghurajnagar Nagareey, Satna District, Madhya Pradesh, 485001",Khamha Toll Plaza,NHAI,Madhya Pradesh;MP,NHY,,,281821255,0,41321.1,390522654,PULTFN,735632.5,barrier,"NHY,NHY,NHY,NHY,NHY"
29,24.349305,80.778882,11376,Satna Maihar Road;NH 135BG,"Satna Maihar Road, Unchahara, Satna District, Madhya Pradesh, 485771",Ichoul Toll Plaza,MPRDC,Madhya Pradesh;MP,NHY,,,275457193,0,44833.4,390522551,XVTWHH,774718.3,barrier,"NHY,NHY,NHY,NHY"
29,24.122443,80.59937,12030,Katni Maihar Road;NH 30,"Katni Maihar Road, Maihar, Satna District, Madhya Pradesh, 485773",Kherwasani Toll Plaza,NHAI,Madhya Pradesh;MP,NHY,115,['cash'],275458831,4,47398.6,969,XVTPIW,808721.8,barrier,"NHY,NHY,NHY"
29,23.816887,80.510952,12859,Katni Umaria Road;NH 43,"Katni Umaria Road, Badwara, Katni District, Madhya Pradesh, 483501",Majhgawan Toll Plaza,NHAI,Madhya Pradesh;MP,NHY,65,['cash'],283806626,6,50770.4,390522819,5V3GWO,861144,barrier,"NHY,NHY"
29,23.434842,80.933313,14115,NH 43,"NH 43, Karkeli, Umaria District, Madhya Pradesh, 484661",Barhi Toll Plaza,,Madhya Pradesh;MP,NHY,,,286625465,0,55192,390522969,H18L6V,929197.7,barrier,NHY
3,12.840228,77.418022,151,Bangalore Mysore Expressway;Bengaluru Mysore Road;NH 275,"Bangalore Mysore Expressway, Ramanagara, Ramanagara District, Karnataka, 562109",Kanmanike Toll Plaza,NHAI,Karnataka;KA,NHY,165,['cash'],288839329,0,1078.4,390523456,MEDRAD,7978.4,barrier,"NHY,NGQ,NGQ,NGQ,NGQ,NGQ,NGQ,NGQ,NGQ,RDA,RDA,RDA,NGQ,NGQ,NGQ,NGQ,NGQ,NGQ,NGQ,NGQ,NGQ,NGQ,NHY,NHY,NHY,NHY,NHY,NHY"
3,13.193642,77.64968,1133,Bangalore Bellary Road;Bangalore Hyderabad Highway;International Airport Road;AH 43;NH 44,"Bangalore Bellary Road, Navarathna Agrahara, Bengaluru, Karnataka, 562157",Navayuga Devanahalli Toll Plaza,NHAI,Karnataka;KA,NGQ,110,['cash'],271149899,0,5863.8,426,JVPKPB,59674.7,barrier,"NGQ,NGQ,NGQ,NGQ,NGQ,NGQ,NGQ,NGQ,RDA,RDA,RDA,NGQ,NGQ,NGQ,NGQ,NGQ,NGQ,NGQ,NGQ,NGQ,NGQ,NHY,NHY,NHY,NHY,NHY,NHY"
3,13.792897,77.764213,2234,Srinagar Kanyakumari Highway;AH 43;NH 44,"NH-7, Bangalore Hyderabad Road, Bagepalli, Chikkaballapur District;Chikkaballapura District, Karnataka, 561207",Bagepalli Toll Plaza,NHAI,Karnataka;KA,NGQ,115,['cash'],103960020,4,10259.4,64,JVQS1N,132322,barrier,"NGQ,NGQ,NGQ,NGQ,NGQ,NGQ,NGQ,RDA,RDA,RDA,NGQ,NGQ,NGQ,NGQ,NGQ,NGQ,NGQ,NGQ,NGQ,NGQ,NHY,NHY,NHY,NHY,NHY,NHY"
